,Accommodates,Accuracy,Air Conditioning,Bathrooms,Bed type,Bedrooms,Beds,Breakfast,Buzzer/Wireless Intercom,Cable TV,Cancellation,Carbon Monoxide Detector,Check In,Check Out,Checkin,Cleaning_Fee,Cleanliness,Communication,Doorman,Dryer,Elevator in Building,Essentials,Extra_People,Family/Kid Friendly,Fire Extinguisher,First Aid Kit,Free Parking on Premises,Gym,Heating,Hot Tub,Indoor Fireplace,Internet,Kitchen,Lat,ListingID,Location,Long,Monthly_Price,Pets Allowed,Pool,Price,Property type,Safety Card,Security_Deposit,Shampoo,Smoke Detector,Smoking Allowed,Suitable for Events,TV,Title,URL,UserID,Value,Washer,Weekly_Price,Wheelchair Accessible,Wireless Internet
0,3,Not Found,1,1.5,Not Found,1,2,1,1,0,Flexible,0,Not Found,Not Found,Not Found,$30,Not Found,Not Found,0,1,0,1,$20 / night after 2 guests,0,0,0,0,1,1,0,0,1,1,40.780074512036286,6699291,Not Found,-73.97746009918947,Not Found,0,1,135,Apartment,1,Not Found,0,1,0,1,1,Large & sunny 1br apartment!,https://www.airbnb.com/rooms/6699291,5293190,Not Found,1,Not Found,1,1
1,2,Not Found,1,1,Real Bed,1,1,1,1,0,Strict,0,12:00 PM (noon),12:00 PM (noon),Not Found,$54,Not Found,Not Found,0,1,1,1,No Charge,0,0,0,0,1,1,0,0,1,1,40.75966758452957,6958139,Not Found,-73.99190066583202,$2100,0,1,96,Apartment,1,$500,0,1,0,1,1,Cosy room in Hells Kitchen,https://www.airbnb.com/rooms/6958139,20832071,Not Found,1,$600,1,1
2,4,Not Found,1,1,Not Found,1,2,1,0,1,Flexible,0,Not Found,Not Found,Not Found,$50,Not Found,Not Found,0,1,0,1,$35 / night after 3 guests,0,0,0,0,1,1,0,0,1,1,40.72704915546615,7161586,Not Found,-73.9813403057607,Not Found,0,1,139,Apartment,1,Not Found,1,1,0,1,1,Perfect East Village Escape,https://www.airbnb.com/rooms/7161586,11948157,Not Found,1,Not Found,1,1
3,2,4.5,0,1,Real Bed,0,1,1,0,1,Flexible,0,Not Found,Not Found,4.5,Not Found,4.5,5.0,0,1,1,1,No Charge,0,0,0,0,1,1,0,0,1,1,40.74399926660595,4690677,4.5,-73.99069586750309,Not Found,0,1,175,Apartment,1,Not Found,0,0,0,1,1,Flatiron studio next to Madison Pk,https://www.airbnb.com/rooms/4690677,19007585,4.5,1,Not Found,1,1
4,4,Not Found,1,1,Not Found,1,2,1,1,0,Flexible,1,1:00 PM,11:00 AM,Not Found,$75,Not Found,Not Found,0,1,1,1,Not Found,1,1,1,0,1,1,0,0,0,1,40.78717582722338,7193730,Not Found,-73.97314860739861,$4200,0,1,150,Apartment,1,Not Found,0,1,0,1,0,Bright Modern Bohemian Apartment,https://www.airbnb.com/rooms/7193730,2420320,Not Found,1,$1150,1,1
5,3,Not Found,0,1,Not Found,0,3,0,0,0,Flexible,0,Not Found,Not Found,Not Found,Not Found,Not Found,Not Found,0,0,0,0,No Charge,0,0,0,0,0,0,0,0,0,0,40.775226992152696,7194600,Not Found,-73.9541703223343,$2604,0,0,124,Apartment,0,Not Found,0,0,0,0,0,New York City Country Cottage,https://www.airbnb.com/rooms/7194600,37676372,Not Found,0,$738,0,0
6,2,Not Found,1,1,Real Bed,0,1,1,1,0,Flexible,0,Not Found,Not Found,Not Found,Not Found,Not Found,Not Found,0,1,0,1,No Charge,1,1,0,0,1,1,0,0,0,1,40.78266778412028,6909447,Not Found,-73.97660701087594,Not Found,0,1,130,Apartment,1,Not Found,1,1,0,1,0,Cozy & perfectly located Studio,https://www.airbnb.com/rooms/6909447,36207962,Not Found,1,Not Found,1,1
7,2,Not Found,1,1,Real Bed,1,1,1,1,0,Strict,1,3:00 PM,12:00 PM (noon),Not Found,$50,Not Found,Not Found,0,1,1,1,$25 / night after the first guest,1,1,1,0,1,1,0,0,1,1,40.84918324884801,6421978,Not Found,-73.92865019100226,$1100,0,1,42,Apartment,1,$250,0,1,0,1,1,Private room  - MANHATTAN,https://www.airbnb.com/rooms/6421978,33132886,Not Found,1,$300,1,1
8,2,Not Found,1,1,Real Bed,0,1,1,1,0,Flexible,0,Not Found,Not Found,Not Found,Not Found,Not Found,Not Found,0,1,0,1,No Charge,0,0,0,0,1,1,0,0,1,1,40.77689985318492,7129896,Not Found,-73.97879644276699,Not Found,0,1,110,Apartment,1,Not Found,1,1,1,1,0,Small studio near Central Park,https://www.airbnb.com/rooms/7129896,3974045,Not Found,1,Not Found,1,1
9,2,Not Found,1,1,Real Bed,0,1,1,0,1,Moderate,1,Not Found,Not Found,Not Found,Not Found,Not Found,Not Found,0,1,0,1,No Charge,0,0,1,0,1,1,0,0,1,1,40.78173350791968,7216203,Not Found,-73.94806596868347,$3800,0,1,175,Apartment,1,Not Found,0,1,0,1,1,1st Floor UES studio with backyard!,https://www.airbnb.com/rooms/7216203,35632073,Not Found,1,$1100,1,1
10,3,Not Found,1,1,Not Found,0,2,1,1,0,Flexible,1,Not Found,Not Found,Not Found,Not Found,Not Found,Not Found,0,1,1,1,No Charge,1,0,0,0,1,1,0,0,1,1,40.78194228508996,6689632,Not Found,-73.97574993032423,Not Found,0,1,158,Apartment,1,Not Found,1,1,0,1,0,"Cozy, Sunny UWS Studio!",https://www.airbnb.com/rooms/6689632,35013117,Not Found,1,Not Found,1,1
11,1,Not Found,1,0.5,Real Bed,1,1,1,1,0,Moderate,1,3:00 PM,12:00 PM (noon),Not Found,$8,Not Found,Not Found,1,1,1,1,Not Found,1,1,0,0,1,1,0,0,1,1,40.74602233238009,6423027,Not Found,-73.97865953518158,Not Found,0,1,68,Apartment,1,Not Found,1,1,0,1,0,private bedroom in midtown,https://www.airbnb.com/rooms/6423027,9316570,Not Found,1,Not Found,1,1
12,2,4.5,1,1,Real Bed,1,1,1,1,0,Moderate,1,9:00 AM,11:00 AM,4.5,Not Found,4.5,4.5,0,1,1,1,No Charge,0,0,0,0,1,1,0,0,0,1,40.76211300860707,6778238,5.0,-73.98574677691036,$2040,0,1,90,Apartment,1,Not Found,0,1,0,1,1,Private Room in Midtown NYC,https://www.airbnb.com/rooms/6778238,35323444,4.5,1,$577,1,1
13,2,Not Found,1,1,Pull-out Sofa,1,1,1,0,1,Flexible,1,Not Found,Not Found,Not Found,Not Found,Not Found,Not Found,0,1,0,1,No Charge,1,0,0,0,1,1,0,0,1,1,40.78778162978373,6980669,Not Found,-73.97287583271971,$3024,0,1,144,Townhouse,1,Not Found,1,1,0,1,1,Townhouse & Garden Private Bed/Bath,https://www.airbnb.com/rooms/6980669,36603478,Not Found,1,$850,1,1
14,2,4.5,1,1,Real Bed,0,1,1,0,1,Strict,0,2:00 PM,11:00 AM,4.5,$45,4.0,4.5,0,1,1,1,No Charge,0,0,0,0,1,1,0,0,0,1,40.75128209311869,593292,5.0,-73.97658015923106,$3450,0,1,165,Apartment,1,$95,1,0,0,1,1,Penthouse Studio East 50s Terrace,https://www.airbnb.com/rooms/593292,2929585,4.5,1,$950,1,1
15,2,Not Found,0,1,Airbed,1,1,1,0,0,Moderate,0,6:00 PM,Not Found,Not Found,$10,Not Found,Not Found,0,1,0,1,No Charge,0,0,0,1,1,1,1,0,1,1,40.79735075617619,7150445,Not Found,-73.96149978367531,Not Found,0,1,79,Apartment,1,$100,1,1,0,1,0,"1Bed on Upper West Side 5min to B,C",https://www.airbnb.com/rooms/7150445,23681631,Not Found,1,Not Found,1,1
16,1,5.0,0,1,Airbed,1,1,1,0,0,Strict,0,6:00 PM,8:00 AM,4.0,Not Found,4.5,4.5,0,1,0,1,Not Found,0,0,0,0,1,1,0,0,0,1,40.7977966258606,6512112,4.0,-73.93807700900562,Not Found,0,1,25,Apartment,1,Not Found,0,1,0,1,0,Air Bed.,https://www.airbnb.com/rooms/6512112,33922512,4.5,1,Not Found,1,1
17,6,4.5,1,1,Not Found,1,2,1,1,0,Strict,1,2:00 PM,12:00 PM (noon),4.5,$100,4.5,4.5,0,1,0,1,$20 / night after 4 guests,0,1,1,0,1,1,0,0,0,1,40.790073594580434,2271266,4.5,-73.97179708177178,$5700,0,1,250,Apartment,1,$200,1,1,0,1,1,Entire Duplex! 1 Block Central Park,https://www.airbnb.com/rooms/2271266,10507472,4.5,1,$1488,1,1
18,1,4.0,1,1,Real Bed,1,1,1,0,0,Moderate,0,Not Found,Not Found,5.0,Not Found,4.5,5.0,0,1,1,1,Not Found,0,0,0,0,1,1,0,0,1,1,40.79320766774083,6515263,5.0,-73.97535698015427,Not Found,0,1,80,Loft,1,Not Found,1,0,0,1,0,Amazing studio heart of Manhattan!,https://www.airbnb.com/rooms/6515263,34066823,4.5,1,Not Found,1,1
19,2,5.0,1,1,Real Bed,0,1,1,1,0,Strict,1,3:00 PM,2:00 PM,5.0,$45,4.5,5.0,0,1,0,1,No Charge,1,0,1,0,1,1,0,0,0,1,40.78828808236039,5340020,4.5,-73.94850060329475,Not Found,0,1,89,Apartment,1,$125,1,1,0,1,0,"Cozy Spot,Central Park & Mt Sinai!",https://www.airbnb.com/rooms/5340020,13304917,5.0,1,Not Found,1,1
20,4,Not Found,1,1.5,Not Found,1,2,1,1,0,Flexible,1,Not Found,Not Found,Not Found,Not Found,Not Found,Not Found,0,1,0,1,No Charge,0,0,0,0,1,1,0,0,1,1,40.78520919721519,7183120,Not Found,-73.9726297843199,Not Found,0,1,150,Apartment,1,Not Found,0,1,0,1,0,UWS duplex a block from the park,https://www.airbnb.com/rooms/7183120,6525377,Not Found,1,$940,1,1
21,3,4.5,1,1,Real Bed,0,1,1,1,0,Strict,1,Not Found,12:00 PM (noon),4.5,$50,4.0,4.5,0,1,0,1,$20 / night after 2 guests,0,0,0,0,1,1,0,0,1,1,40.78378631645255,6444289,5.0,-73.97389474069816,Not Found,0,1,160,Apartment,1,$800,1,1,0,1,0,"Charming Studio, Steps to the Park",https://www.airbnb.com/rooms/6444289,24998505,4.0,1,$1000,1,1
22,1,Not Found,0,1,Real Bed,1,1,1,1,0,Strict,0,Not Found,Not Found,Not Found,Not Found,Not Found,Not Found,0,1,0,1,Not Found,0,0,0,0,1,1,0,0,1,1,40.78459044331654,6993103,Not Found,-73.97775252154976,Not Found,0,1,73,Apartment,1,Not Found,0,0,0,1,1,"Cozy private room, awesome UWS area",https://www.airbnb.com/rooms/6993103,30312537,Not Found,1,Not Found,1,1
23,2,5.0,1,1,Real Bed,1,1,1,0,0,Moderate,1,Not Found,Not Found,5.0,Not Found,5.0,5.0,0,1,0,1,No Charge,1,0,1,0,1,1,0,0,1,1,40.79610806946762,2866822,4.5,-73.93020175928343,Not Found,0,1,85,Apartment,1,Not Found,1,1,0,1,1,Spacious 1BD in Upper East Side,https://www.airbnb.com/rooms/2866822,13631524,5.0,1,$550,1,1
24,1,Not Found,1,1,Real Bed,1,1,1,0,0,Flexible,0,Not Found,Not Found,Not Found,$25,Not Found,Not Found,0,1,0,1,Not Found,0,0,0,0,1,1,0,0,1,1,40.7469289317916,7145335,Not Found,-73.98167613562516,Not Found,0,1,85,Apartment,1,Not Found,0,0,0,1,0,Master Bedroom in 2BR appartment,https://www.airbnb.com/rooms/7145335,18787899,Not Found,1,$575,1,1
25,2,Not Found,1,1,Not Found,1,2,1,0,1,Moderate,1,Not Found,Not Found,Not Found,$10,Not Found,Not Found,0,1,0,1,No Charge,1,1,1,0,1,1,0,0,1,1,40.74206096523053,6939758,Not Found,-73.9801439463603,Not Found,0,1,100,Apartment,1,Not Found,0,1,0,1,1,Mid-century Apt. Next To Subway,https://www.airbnb.com/rooms/6939758,3266476,Not Found,1,Not Found,1,1
26,2,Not Found,1,1,Real Bed,1,1,1,1,1,Moderate,1,Not Found,Not Found,Not Found,Not Found,Not Found,Not Found,0,1,0,1,No Charge,1,0,0,1,1,1,0,0,1,1,40.802545741618125,7206191,Not Found,-73.95437886665216,Not Found,0,1,99,Apartment,1,$300,0,1,0,1,1,1 bedroom @ Columbia University,https://www.airbnb.com/rooms/7206191,36081711,Not Found,1,$589,1,1
27,2,Not Found,1,1,Not Found,0,2,1,1,1,Moderate,0,Not Found,Not Found,Not Found,$10,Not Found,Not Found,0,1,0,1,No Charge,0,0,0,0,1,1,0,0,1,1,40.785210267609415,5499562,Not Found,-73.97351216422337,Not Found,0,1,105,Apartment,1,Not Found,1,0,0,1,1,Private Studio near Central Park,https://www.airbnb.com/rooms/5499562,28524066,Not Found,1,$700,1,1
28,2,4.5,1,1,Real Bed,1,1,1,0,0,Strict,0,2:00 PM,12:00 PM (noon),5.0,$45,5.0,5.0,0,1,0,1,No Charge,0,0,0,0,1,1,0,0,1,1,40.79339814948364,627363,4.5,-73.96956454593419,$2300,0,1,112,Apartment,1,$250,0,0,0,1,0,1 Bdr UWS- Great location 95 St. !,https://www.airbnb.com/rooms/627363,729032,4.5,1,$700,1,1
29,1,5.0,1,1.5,Not Found,1,2,1,1,0,Flexible,0,Not Found,Not Found,5.0,Not Found,4.5,5.0,0,1,1,1,Not Found,1,1,0,0,1,1,0,0,1,1,40.85490127318242,568933,4.5,-73.93499165513295,$1200,0,1,50,Apartment,1,Not Found,0,1,0,1,1,Spacious beautiful 2br in Manhattan,https://www.airbnb.com/rooms/568933,1334904,4.5,1,$350,1,1
30,1,Not Found,0,1,Real Bed,1,1,1,1,0,Flexible,0,Not Found,Not Found,Not Found,Not Found,Not Found,Not Found,0,1,0,1,Not Found,0,0,0,0,1,1,0,0,0,1,40.71946935040096,6706708,Not Found,-73.9902149204027,Not Found,0,1,68,Apartment,1,Not Found,1,1,0,1,0,"1 Bedroom, Renovated apartment",https://www.airbnb.com/rooms/6706708,27919763,Not Found,1,Not Found,1,1
31,1,4.5,1,Not Found,Real Bed,1,1,1,0,0,Strict,0,Not Found,Not Found,4.5,$5,4.0,4.5,0,1,0,1,Not Found,0,0,0,0,1,1,0,0,1,1,40.73021996434307,1402731,5.0,-74.001842418306,$2300,1,1,80,Apartment,1,Not Found,0,0,0,1,0,Greenwich Village Crash Pad,https://www.airbnb.com/rooms/1402731,7571320,4.5,1,$585,1,1
32,2,5.0,1,1.5,Real Bed,1,1,1,1,0,Flexible,1,Not Found,Not Found,5.0,Not Found,4.5,5.0,1,1,1,1,No Charge,1,0,0,0,1,1,0,0,1,1,40.7893594402132,4951402,4.5,-73.97501905278394,Not Found,1,1,80,Apartment,1,Not Found,1,1,0,1,0,Best Location on the UWS!!,https://www.airbnb.com/rooms/4951402,10795846,4.5,1,$500,1,1
33,1,Not Found,0,1,Real Bed,1,1,0,0,0,Flexible,0,Not Found,Not Found,Not Found,$13,Not Found,Not Found,0,0,0,0,Not Found,0,0,0,0,0,0,0,0,0,0,40.79893715476454,7239289,Not Found,-73.96639683641479,$1280,0,0,80,Apartment,0,Not Found,0,0,0,0,0,Cozy private room near subway,https://www.airbnb.com/rooms/7239289,19017204,Not Found,0,$420,0,0
34,4,Not Found,0,1,Real Bed,1,1,0,0,0,Flexible,0,Not Found,Not Found,Not Found,Not Found,Not Found,Not Found,0,0,0,0,No Charge,0,0,0,0,0,0,0,0,0,0,40.77348841156907,7239663,Not Found,-73.9481609349476,Not Found,0,0,145,Apartment,0,Not Found,0,0,0,0,0,francine markowitz,https://www.airbnb.com/rooms/7239663,37901698,Not Found,0,Not Found,0,0
35,2,Not Found,1,1,Real Bed,0,1,1,1,0,Flexible,0,Not Found,Not Found,Not Found,Not Found,Not Found,Not Found,0,1,1,1,No Charge,0,0,0,0,1,1,0,0,1,1,40.80538220518703,7191740,Not Found,-73.95471817680473,Not Found,0,1,99,Apartment,1,$500,0,1,0,1,0,Apartment for rent,https://www.airbnb.com/rooms/7191740,9929238,Not Found,1,$700,1,1
36,2,Not Found,0,1,Futon,1,1,1,0,0,Flexible,0,Not Found,Not Found,Not Found,$25,Not Found,Not Found,0,1,0,1,Not Found,0,0,1,0,1,1,0,0,1,1,40.79720139245727,7206568,Not Found,-73.96921834437208,$2500,0,1,89,Apartment,1,$150,1,1,0,1,1,Private Bed & Bath in Spacious Apt,https://www.airbnb.com/rooms/7206568,37735816,Not Found,1,$600,1,1
37,2,5.0,1,0,Real Bed,1,1,1,1,0,Flexible,0,Not Found,Not Found,5.0,Not Found,4.0,5.0,0,1,0,1,No Charge,1,0,0,0,1,1,0,0,1,1,40.78566775100754,6972046,5.0,-73.97664561607155,Not Found,1,1,150,Apartment,1,Not Found,1,0,0,1,0,Large Private Upper West Side Room,https://www.airbnb.com/rooms/6972046,23574544,4.5,1,Not Found,1,1
38,2,Not Found,1,1,Real Bed,0,1,1,0,0,Flexible,0,Not Found,Not Found,Not Found,Not Found,Not Found,Not Found,0,1,1,1,No Charge,0,0,0,0,1,1,0,0,0,1,40.78362877489585,7194972,Not Found,-73.97485471134712,$3500,0,1,190,Apartment,1,Not Found,0,1,0,1,1,"Charming, Central Park Studio Apt",https://www.airbnb.com/rooms/7194972,22502429,Not Found,1,$1100,1,1
39,2,Not Found,1,1,Real Bed,0,1,1,1,0,Strict,1,1:00 PM,12:00 PM (noon),Not Found,$49,Not Found,Not Found,0,1,0,1,No Charge,1,1,1,1,1,1,0,0,1,1,40.81814558059557,6208563,Not Found,-73.94214487043915,$2499,0,1,89,Apartment,1,$99,1,1,0,1,1,"Cozy NYC Studio, Perfect for 2",https://www.airbnb.com/rooms/6208563,6669966,Not Found,1,Not Found,1,1
40,7,3.5,1,1,Not Found,1,3,1,1,1,Moderate,0,2:00 PM,11:00 AM,4.5,$10,3.0,4.5,0,1,1,1,$10 / night after the first guest,0,0,0,0,1,1,0,0,1,1,40.73731678466178,4996856,5.0,-73.99222505945527,Not Found,0,1,130,Apartment,1,$150,0,0,0,1,1,whole apt.(with1 bedroom) Union. Sq,https://www.airbnb.com/rooms/4996856,7831209,3.5,1,Not Found,1,1
41,2,5.0,0,1,Real Bed,1,1,1,0,1,Moderate,1,3:00 PM,11:00 AM,5.0,Not Found,5.0,5.0,0,1,0,1,No Charge,1,0,1,0,1,1,0,0,1,1,40.79327410878522,6844394,5.0,-73.96925835369467,Not Found,1,1,105,Apartment,1,Not Found,1,1,0,1,1,Sunny Room Close to Everything!,https://www.airbnb.com/rooms/6844394,35864799,5.0,1,Not Found,1,1
42,1,4.5,0,1,Real Bed,1,1,1,0,1,Strict,0,3:00 PM,12:00 PM (noon),4.5,$15,3.5,5.0,0,1,1,1,Not Found,0,0,1,0,1,1,0,0,1,1,40.78963962416698,5442426,4.5,-73.97244862000312,Not Found,0,1,65,Apartment,1,Not Found,0,0,0,1,1,1 Single Bedrm in Upper West Side!,https://www.airbnb.com/rooms/5442426,28228829,4.5,1,Not Found,1,1
43,2,Not Found,0,1.5,Real Bed,1,1,1,1,0,Strict,1,Not Found,12:00 PM (noon),Not Found,Not Found,Not Found,Not Found,0,1,1,1,No Charge,0,0,0,0,1,1,0,0,1,1,40.82560231709628,6712530,Not Found,-73.95213939482927,$1700,0,1,75,Apartment,1,Not Found,1,1,0,1,1,⭐️Harlem getaway w/ great amenities,https://www.airbnb.com/rooms/6712530,10771238,Not Found,1,$500,1,1
44,3,Not Found,1,1,Not Found,2,2,1,1,0,Moderate,0,Not Found,Not Found,Not Found,$50,Not Found,Not Found,0,1,1,1,No Charge,1,0,0,0,1,1,1,0,1,1,40.795466910378856,7178232,Not Found,-73.94906137896366,Not Found,1,1,169,Apartment,1,Not Found,0,0,0,1,0,Amazing 2BR near Central Park North,https://www.airbnb.com/rooms/7178232,37604269,Not Found,1,$1100,1,1
45,4,Not Found,1,1,Not Found,1,2,1,0,1,Moderate,0,10:00 AM,12:00 PM (noon),Not Found,Not Found,Not Found,Not Found,0,1,0,1,No Charge,0,0,0,0,1,1,0,0,1,1,40.716744548516694,6893419,Not Found,-73.99177970147366,Not Found,0,1,163,Apartment,1,Not Found,1,0,0,1,1,"1 Bedroom Apt, Sleeps 3+ in LES",https://www.airbnb.com/rooms/6893419,4417895,Not Found,1,Not Found,1,1
46,3,Not Found,1,1,Not Found,1,2,1,1,0,Moderate,0,Not Found,Not Found,Not Found,$20,Not Found,Not Found,0,1,1,1,No Charge,0,0,0,0,1,1,0,0,0,1,40.8507465761412,4715030,Not Found,-73.94152364242323,Not Found,0,1,90,Apartment,1,$200,0,0,0,1,1,Large Sunny Studio on Hudson River ,https://www.airbnb.com/rooms/4715030,24361297,Not Found,1,$600,1,1
47,4,4.5,1,2,Not Found,1,2,1,1,1,Moderate,1,Not Found,Not Found,5.0,Not Found,4.0,5.0,1,1,1,1,$25 / night after the first guest,1,0,0,0,1,1,0,0,1,1,40.703858287315505,1017491,5.0,-74.00686927540977,$1200,1,1,55,Apartment,1,Not Found,1,1,1,1,1,Beautiful Wall St. Apartment Share!,https://www.airbnb.com/rooms/1017491,5599939,4.5,1,$360,1,1
48,2,Not Found,0,1,Not Found,1,2,0,0,0,Flexible,0,Not Found,Not Found,Not Found,$10,Not Found,Not Found,0,0,0,0,$25 / night after the first guest,0,0,0,0,0,0,0,0,0,0,40.78455043970788,7094413,Not Found,-73.97652239885956,Not Found,0,0,99,Apartment,0,$95,0,0,0,0,0,Private Room in UWS,https://www.airbnb.com/rooms/7094413,6988990,Not Found,0,$580,0,0
49,2,5.0,1,1,Real Bed,1,1,1,1,0,Flexible,0,Not Found,Not Found,4.0,Not Found,5.0,4.5,0,1,0,1,No Charge,0,0,0,0,1,1,1,0,0,1,40.7176836908774,4815915,4.5,-73.99162087817767,Not Found,0,1,90,Apartment,1,$250,1,0,0,1,0,"Room in Manhattan, private bathroom",https://www.airbnb.com/rooms/4815915,10191995,4.0,1,Not Found,1,1
50,4,5.0,1,1,Real Bed,1,1,1,0,0,Moderate,1,3:00 PM,10:00 AM,5.0,$50,5.0,5.0,0,1,1,1,No Charge,1,0,0,0,1,1,0,0,1,1,40.74761920270521,6658537,5.0,-73.97783660871282,$4000,0,1,160,Apartment,1,Not Found,1,1,1,1,0,LG studio in the heart of Manhattan,https://www.airbnb.com/rooms/6658537,28961530,5.0,1,$1050,1,1
51,4,5.0,1,1,Real Bed,2,1,1,1,0,Strict,0,Not Found,Not Found,5.0,$50,4.5,5.0,0,1,1,1,No Charge,1,0,0,1,1,1,0,0,1,1,40.80709740420807,937840,4.5,-73.95749242504203,Not Found,0,1,140,Apartment,1,Not Found,0,1,0,1,0,Sunny & Quiet 2-Bdrm (Kid-friendly),https://www.airbnb.com/rooms/937840,5063676,4.5,1,$980,1,1
52,4,Not Found,0,1,Not Found,2,2,1,1,1,Flexible,0,Not Found,Not Found,Not Found,$80,Not Found,Not Found,0,1,1,1,No Charge,0,0,0,0,1,1,0,0,1,1,40.77790567269313,7112437,Not Found,-73.98103360679558,Not Found,0,1,175,Apartment,1,$200,1,0,0,1,1,HUGE 2br. apt. UWS Central Park,https://www.airbnb.com/rooms/7112437,11488122,Not Found,1,Not Found,1,1
53,2,Not Found,1,1,Real Bed,1,1,1,1,0,Strict,1,Not Found,Not Found,Not Found,Not Found,Not Found,Not Found,0,1,0,1,Not Found,0,0,0,0,1,1,0,0,1,1,40.731854314458076,6833049,Not Found,-74.00271438765526,Not Found,0,1,160,Apartment,1,$500,0,1,0,1,0,Sunny Spacious 1BR in West Village,https://www.airbnb.com/rooms/6833049,1787313,Not Found,1,$1000,1,1
54,1,5.0,1,1,Real Bed,0,1,1,0,0,Flexible,0,Not Found,Not Found,5.0,Not Found,5.0,4.5,0,1,0,1,Not Found,0,0,0,0,1,1,0,0,1,1,40.78274264798671,1950137,5.0,-73.98301953638733,Not Found,0,1,125,Apartment,1,$110,1,1,0,1,0,Studio Apt in the UWS of Manhattan,https://www.airbnb.com/rooms/1950137,10084635,4.5,1,Not Found,1,1
55,2,Not Found,1,1,Real Bed,1,1,1,1,1,Strict,1,9:00 AM,3:00 PM,Not Found,$40,Not Found,Not Found,0,1,0,1,$7 / night after the first guest,0,0,0,0,1,1,0,0,1,1,40.78607797302403,6893767,Not Found,-73.97700655171359,$2550,0,1,90,Apartment,1,$250,0,1,0,1,1,1 bedroom in lovely UWS apartment,https://www.airbnb.com/rooms/6893767,24416291,Not Found,1,$600,1,1
56,2,4.5,1,1,Real Bed,1,1,1,1,1,Strict,1,2:00 PM,12:00 PM (noon),5.0,$50,4.5,5.0,0,1,1,1,$25 / night after the first guest,0,1,1,0,1,1,0,0,1,1,40.778277932106,4412012,4.5,-73.94629075753821,Not Found,0,1,125,Apartment,1,$100,0,1,0,1,0,Private 1 Bedroom of Penthouse Apt ,https://www.airbnb.com/rooms/4412012,1671620,4.5,1,Not Found,1,1
57,2,5.0,1,1,Real Bed,1,1,1,0,1,Moderate,0,Not Found,Not Found,5.0,Not Found,5.0,5.0,0,1,0,1,$30 / night after the first guest,0,0,0,0,1,1,0,0,1,1,40.761893087375995,3553679,4.5,-73.9629763125631,$1720,0,1,79,Apartment,1,$95,0,0,0,1,1,Room in Upper East Side,https://www.airbnb.com/rooms/3553679,2879920,4.0,1,$490,1,1
58,2,4.5,1,1,Real Bed,1,1,1,0,0,Strict,1,3:00 PM,11:00 AM,5.0,Not Found,4.0,5.0,0,1,0,1,No Charge,0,0,0,0,1,1,0,0,1,1,40.79258034304875,862973,4.0,-73.9454815397278,$3650,0,1,125,Apartment,1,$200,0,1,0,1,1,Terrace on Lex Near Central Park,https://www.airbnb.com/rooms/862973,4524320,4.5,1,$850,1,1
59,3,Not Found,0,1,Real Bed,1,1,1,0,0,Strict,1,1:00 PM,11:00 AM,Not Found,Not Found,Not Found,Not Found,0,1,0,1,$20 / night after 2 guests,0,0,1,0,1,1,0,0,1,1,40.822175731453044,7158825,Not Found,-73.94323505377649,Not Found,0,1,65,Apartment,1,Not Found,1,1,0,1,1,Harlem Vacation,https://www.airbnb.com/rooms/7158825,33906660,Not Found,1,Not Found,1,1
60,2,5.0,0,1,Real Bed,1,1,1,1,1,Strict,0,5:00 PM,Not Found,5.0,$30,5.0,5.0,0,1,0,1,$30 / night after the first guest,0,0,1,0,1,1,0,0,1,1,40.79866313192989,5713920,4.5,-73.96085597299779,Not Found,0,1,60,Apartment,1,$300,0,1,0,1,1,Newly renovated master bedroom.,https://www.airbnb.com/rooms/5713920,29624311,5.0,1,Not Found,1,1
61,2,5.0,1,1,Real Bed,0,1,1,0,0,Flexible,0,Not Found,Not Found,5.0,Not Found,3.5,5.0,0,1,0,1,No Charge,0,0,0,0,1,1,0,0,1,1,40.7917179020303,4872295,5.0,-73.97277972345971,Not Found,0,1,173,Apartment,1,Not Found,0,0,0,1,1,Luxury NYC studio apartment ,https://www.airbnb.com/rooms/4872295,11629726,4.5,1,Not Found,1,1
62,3,4.5,0,1,Real Bed,1,1,1,1,1,Flexible,0,Not Found,Not Found,4.5,$50,3.5,5.0,1,1,1,1,No Charge,0,0,0,0,1,1,0,0,1,1,40.80096023460271,4112630,3.5,-73.93857187552952,$2600,1,1,105,Apartment,1,Not Found,0,1,1,1,1,Great Space in Upper East Manhattan,https://www.airbnb.com/rooms/4112630,4509281,4.5,1,$600,1,1
63,2,4.5,1,1,Real Bed,1,1,1,0,1,Flexible,0,Not Found,Not Found,5.0,$25,4.5,5.0,0,1,0,1,$15 / night after the first guest,0,0,0,0,1,1,1,0,1,1,40.83333155198783,2806791,4.0,-73.9418177949635,Not Found,0,1,45,Apartment,1,Not Found,0,0,0,1,1,PRIVET  ROOM IN NEW YORK MANHATTAN,https://www.airbnb.com/rooms/2806791,11725608,4.5,1,Not Found,1,1
64,4,Not Found,0,1,Not Found,2,2,1,1,1,Strict,0,Not Found,Not Found,Not Found,$60,Not Found,Not Found,0,1,1,1,No Charge,1,1,0,0,1,1,0,0,1,1,40.7854333351573,6462362,Not Found,-73.9769992213384,Not Found,0,1,235,Apartment,1,Not Found,1,1,0,1,1,Amazing 2-bedroom Manhattan,https://www.airbnb.com/rooms/6462362,28236441,Not Found,1,$1400,1,1
65,2,Not Found,1,1,Real Bed,0,1,1,0,0,Flexible,0,Not Found,Not Found,Not Found,Not Found,Not Found,Not Found,0,1,0,1,No Charge,0,0,0,0,1,1,0,0,1,1,40.77004410545511,7136629,Not Found,-73.96038822052616,Not Found,0,1,115,Apartment,1,Not Found,1,0,0,1,1,Fresh studio in the ❤️ of the UES!,https://www.airbnb.com/rooms/7136629,34469531,Not Found,1,Not Found,1,1
66,2,Not Found,1,1,Real Bed,1,1,1,0,0,Strict,1,Not Found,Not Found,Not Found,$30,Not Found,Not Found,0,1,1,1,No Charge,0,0,1,0,1,1,0,0,1,1,40.83494964829487,876282,Not Found,-73.93928680699376,$1200,0,1,70,Apartment,1,$300,1,1,0,1,0,Sunlight on a Hill in Manhattan ,https://www.airbnb.com/rooms/876282,1679743,Not Found,1,$500,1,1
67,2,Not Found,1,1,Real Bed,0,1,1,1,1,Moderate,0,Not Found,2:00 PM,Not Found,$25,Not Found,Not Found,0,1,0,1,Not Found,0,0,0,0,1,1,0,0,0,1,40.78104143676006,6983023,Not Found,-73.94852446024653,Not Found,0,1,105,Apartment,1,$100,0,0,0,1,0,Upper East Side Studio,https://www.airbnb.com/rooms/6983023,36217439,Not Found,1,Not Found,1,1
68,4,4.5,1,1,Not Found,1,2,1,1,1,Moderate,1,1:00 PM,11:00 AM,5.0,Not Found,4.5,5.0,0,1,0,1,$15 / night after 2 guests,1,0,0,0,1,1,0,0,1,1,40.77953393726197,32291,5.0,-73.95342142912874,Not Found,0,1,195,Apartment,1,Not Found,1,1,0,1,1,"Lux Upper East - CPark, All Museums",https://www.airbnb.com/rooms/32291,95639,4.5,1,Not Found,1,1
69,3,Not Found,1,1,Real Bed,1,1,1,1,1,Strict,0,6:00 AM,Not Found,Not Found,$50,Not Found,Not Found,0,1,0,1,No Charge,1,0,0,1,1,1,0,0,1,1,40.79902524993997,2313867,Not Found,-73.95985325164486,$2825,0,1,132,Apartment,1,Not Found,1,0,0,1,1,Central Park West-Columbia/St Lukes,https://www.airbnb.com/rooms/2313867,4422250,Not Found,1,$785,1,1
70,1,5.0,1,1,Real Bed,1,1,1,0,0,Flexible,0,12:00 PM (noon),3:00 PM,4.5,$5,3.5,5.0,0,1,0,1,Not Found,0,0,0,0,1,1,0,0,1,1,40.80101812368058,6299137,4.5,-73.96340485880853,Not Found,0,1,40,Apartment,1,Not Found,0,0,0,1,1,Best Deal on the UWS,https://www.airbnb.com/rooms/6299137,28112335,4.5,1,$265,1,1
71,2,Not Found,0,1.5,Not Found,2,2,1,0,0,Strict,0,Not Found,Not Found,Not Found,Not Found,Not Found,Not Found,1,1,1,1,No Charge,0,0,0,0,1,1,0,0,1,1,40.796134346796855,5396306,Not Found,-73.96686504145599,Not Found,0,1,100,Apartment,1,Not Found,0,0,0,1,0,Apartment Upper West Side ,https://www.airbnb.com/rooms/5396306,27973867,Not Found,1,Not Found,1,1
72,2,5.0,1,1,Real Bed,1,1,1,1,0,Strict,0,Not Found,Not Found,5.0,Not Found,4.5,4.5,0,1,0,1,No Charge,1,0,0,1,1,1,0,0,1,1,40.81665484730936,2608680,4.0,-73.93987328225661,Not Found,0,1,80,Apartment,1,Not Found,0,1,0,1,0,Beautiful spacious room ,https://www.airbnb.com/rooms/2608680,6049730,4.5,1,Not Found,1,1
73,5,Not Found,1,1,Not Found,2,3,1,0,1,Moderate,0,3:00 PM,12:00 PM (noon),Not Found,Not Found,Not Found,Not Found,1,1,1,1,No Charge,1,0,0,0,1,1,0,0,1,1,40.76705823906451,6054335,Not Found,-73.95437212727407,Not Found,0,1,275,Apartment,1,Not Found,0,1,0,1,1,Sunny Two-Bedroom Sleeps 5,https://www.airbnb.com/rooms/6054335,13419231,Not Found,1,Not Found,1,1
74,2,Not Found,1,1,Real Bed,1,1,1,0,0,Flexible,0,12:00 PM (noon),12:00 PM (noon),Not Found,Not Found,Not Found,Not Found,0,1,0,1,No Charge,0,1,0,0,1,1,0,0,1,1,40.72683843614586,6748508,Not Found,-73.98646306980486,Not Found,0,1,110,Apartment,1,Not Found,0,1,0,1,0,Private Room- Heart of East Village,https://www.airbnb.com/rooms/6748508,35332514,Not Found,1,Not Found,1,1
75,2,Not Found,1,1,Real Bed,1,1,1,0,1,Strict,0,2:00 PM,2:00 PM,Not Found,$35,Not Found,Not Found,1,1,1,1,No Charge,1,0,0,0,1,1,0,0,1,1,40.75962001499409,7194680,Not Found,-73.984256985969,$2150,0,1,95,Apartment,1,$250,0,0,0,1,1,Large Private Room in Times Square,https://www.airbnb.com/rooms/7194680,20203673,Not Found,1,$595,1,1
76,2,Not Found,1,1,Real Bed,1,1,1,1,1,Moderate,1,9:00 AM,2:00 PM,Not Found,Not Found,Not Found,Not Found,0,1,1,1,No Charge,1,0,0,0,1,1,0,0,1,1,40.71618160189228,1896931,Not Found,-73.98929250535075,$4500,0,1,185,Apartment,1,$400,1,1,0,1,1,Luxury in LES with incredible view,https://www.airbnb.com/rooms/1896931,9854197,Not Found,1,$1200,1,1
77,2,4.0,1,1,Futon,1,1,1,1,0,Strict,0,6:00 PM,3:00 PM,4.5,$20,4.0,4.5,0,1,0,1,$15 / night after the first guest,0,0,0,0,1,1,0,0,1,1,40.758159693354855,2209182,4.5,-73.99235004092361,Not Found,0,1,75,Apartment,1,Not Found,0,0,0,1,0,CUTE right in the heart of NYC! WOW,https://www.airbnb.com/rooms/2209182,10916318,4.0,1,$600,1,1
78,4,5.0,0,1,Not Found,0,2,1,1,0,Moderate,1,Not Found,Not Found,4.5,Not Found,5.0,5.0,0,1,0,1,No Charge,0,0,0,0,1,1,0,0,1,1,40.72665538957755,5566792,5.0,-73.97645594850692,Not Found,0,1,150,Apartment,1,Not Found,1,1,0,1,0,East Village Plant-Filled Studio,https://www.airbnb.com/rooms/5566792,28860633,4.5,1,$1000,1,1
79,2,Not Found,1,1,Real Bed,1,1,1,0,0,Flexible,1,Not Found,Not Found,Not Found,$30,Not Found,Not Found,0,1,0,1,No Charge,0,0,0,0,1,1,0,0,1,1,40.765119484053656,7205670,Not Found,-74.03829530367669,$1955,0,1,110,Apartment,1,Not Found,1,1,0,1,0,Comfortable Apt 20min to Manhattan,https://www.airbnb.com/rooms/7205670,2074014,Not Found,1,Not Found,1,1
80,2,4.5,1,1,Real Bed,1,1,1,1,0,Strict,0,1:00 PM,10:00 AM,4.5,$50,4.5,4.5,0,1,0,1,$20 / night after the first guest,0,0,0,0,1,1,1,0,1,1,40.7805751072266,3449575,4.5,-73.95111691864773,Not Found,0,1,99,Apartment,1,Not Found,1,0,0,1,1,NY Manhattan Private Studio,https://www.airbnb.com/rooms/3449575,17386660,4.5,1,Not Found,1,1
81,2,5.0,1,1,Real Bed,0,1,1,1,0,Strict,1,Not Found,Not Found,5.0,$20,4.5,5.0,0,1,0,1,Not Found,0,1,0,0,1,1,0,1,1,1,40.748353293694265,292996,5.0,-74.00330960597303,Not Found,0,1,179,Apartment,1,$300,1,1,0,1,1,Entire Apartment : Aug. 22 & 23rd,https://www.airbnb.com/rooms/292996,1516553,5.0,1,Not Found,1,1
82,2,Not Found,1,1,Real Bed,1,1,1,1,1,Flexible,1,Not Found,Not Found,Not Found,Not Found,Not Found,Not Found,0,1,1,1,No Charge,0,0,0,0,1,1,0,0,0,1,40.83022887121555,7227071,Not Found,-73.95044228373197,$1500,0,1,95,Apartment,1,Not Found,1,1,0,1,1,Private Room on Riverside Drive,https://www.airbnb.com/rooms/7227071,36562102,Not Found,1,$550,1,1
83,1,4.5,1,1,Airbed,1,1,1,0,1,Strict,1,4:00 PM,12:00 PM (noon),4.5,Not Found,5.0,4.5,1,1,1,1,Not Found,0,1,1,0,1,1,0,0,1,1,40.776025714559836,6114680,5.0,-73.9839191214725,Not Found,0,1,68,Apartment,1,Not Found,1,1,0,1,1,"Beautiful apt, best neighborhood!",https://www.airbnb.com/rooms/6114680,1624395,5.0,1,Not Found,1,1
84,2,4.5,1,1,Real Bed,0,1,1,1,0,Strict,1,Not Found,Not Found,4.5,Not Found,4.5,5.0,0,1,0,1,No Charge,0,1,0,0,1,1,0,0,1,1,40.75365517081676,930005,4.5,-73.99440037721014,Not Found,0,1,180,Loft,1,$500,1,1,0,1,0,NYC STUDIO/LOFT  ,https://www.airbnb.com/rooms/930005,1196380,4.0,1,Not Found,1,1
85,6,Not Found,1,2,Not Found,3,3,1,1,1,Strict,1,3:00 PM,11:00 AM,Not Found,$80,Not Found,Not Found,0,1,1,1,No Charge,1,1,1,0,1,1,0,0,0,1,40.78561502957928,6926572,Not Found,-73.9739406279677,Not Found,0,1,225,Condominium,1,$250,0,1,0,1,0,3BD 2BA steps to CP-great location!,https://www.airbnb.com/rooms/6926572,36309981,Not Found,1,Not Found,1,1
86,1,4.5,1,1,Real Bed,1,1,1,1,0,Moderate,0,Not Found,Not Found,5.0,$29,4.0,5.0,0,1,0,1,Not Found,0,0,0,0,1,1,0,0,1,1,40.82089190191844,5267542,3.5,-73.95175640788862,$1399,0,1,59,Apartment,1,Not Found,0,0,0,1,1,Make New Friends - innJoy NYC  [1S],https://www.airbnb.com/rooms/5267542,2313878,4.0,1,Not Found,1,1
87,2,Not Found,1,1,Real Bed,0,1,1,1,1,Flexible,1,Not Found,4:00 PM,Not Found,$60,Not Found,Not Found,1,1,1,1,No Charge,0,0,0,0,1,1,0,0,1,1,40.79250510623142,4972631,Not Found,-73.97050228970194,Not Found,0,1,150,Apartment,1,Not Found,1,1,0,1,1,"Large, sunny studio, steps to park.",https://www.airbnb.com/rooms/4972631,16351410,Not Found,1,Not Found,1,1
88,1,4.0,1,1,Real Bed,1,1,1,1,1,Flexible,1,Not Found,Not Found,5.0,$15,4.0,4.5,0,1,0,1,Not Found,1,1,1,0,1,1,0,0,1,1,40.803591407319736,6645034,5.0,-73.96537003914845,$1200,0,1,54,Apartment,1,Not Found,1,1,0,1,1,"move-in ready, on-budget, come! =)",https://www.airbnb.com/rooms/6645034,34781484,4.5,1,$321,1,1
89,2,4.5,1,1,Real Bed,1,1,1,0,0,Moderate,1,Not Found,Not Found,5.0,Not Found,4.5,5.0,0,1,0,1,No Charge,0,0,1,0,1,1,0,0,0,1,40.797318081632056,4750486,3.5,-73.9318443794276,$1600,0,1,70,Apartment,1,Not Found,1,1,0,1,1,Sun-drenched 1BD in Upper East Side,https://www.airbnb.com/rooms/4750486,13631524,4.5,1,Not Found,1,1
90,2,Not Found,1,1,Real Bed,1,1,1,0,0,Moderate,1,3:00 PM,12:00 PM (noon),Not Found,Not Found,Not Found,Not Found,0,1,0,1,No Charge,0,0,0,0,1,1,0,0,0,1,40.77894108478798,6511083,Not Found,-73.98085199734211,Not Found,0,1,150,Apartment,1,Not Found,0,1,0,1,1,Cozy 1 bedroom // Upper West Side,https://www.airbnb.com/rooms/6511083,18724866,Not Found,1,Not Found,1,1
91,4,5.0,1,1,Real Bed,1,1,1,1,1,Moderate,0,Not Found,Not Found,5.0,Not Found,4.5,5.0,0,1,1,1,$10 / night after 2 guests,1,0,0,0,1,1,0,0,1,1,40.78911674752582,1262689,5.0,-73.95511777384004,Not Found,1,1,150,Apartment,1,$250,1,1,0,1,1,Lovely Apt. Steps from Central Park,https://www.airbnb.com/rooms/1262689,490191,4.5,1,Not Found,1,1
92,4,Not Found,1,1,Not Found,1,2,1,0,1,Flexible,0,Not Found,Not Found,Not Found,$49,Not Found,Not Found,1,1,1,1,$15 / night after 2 guests,0,0,0,0,1,1,0,0,1,1,40.75307581108427,7053025,Not Found,-73.99537616820055,Not Found,0,1,188,Apartment,1,Not Found,0,1,0,1,1,Luxury Midtown High-Rise,https://www.airbnb.com/rooms/7053025,14174955,Not Found,1,$1089,1,1
93,2,4.5,0,1,Real Bed,1,1,1,1,0,Flexible,1,4:00 PM,12:00 PM (noon),4.5,$80,4.0,4.0,0,1,0,1,No Charge,0,1,0,0,1,1,1,0,1,1,40.81142748965836,2127713,4.0,-73.94247966232923,Not Found,0,1,98,Apartment,1,Not Found,0,1,0,1,0,GREAT COZY APT,https://www.airbnb.com/rooms/2127713,8384058,4.5,1,Not Found,1,1
94,5,Not Found,1,1,Real Bed,0,1,1,1,1,Strict,1,Not Found,Not Found,Not Found,$50,Not Found,Not Found,1,1,1,1,No Charge,1,0,1,0,1,1,0,0,1,1,40.73818160459746,6938759,Not Found,-74.00046461899433,$4000,1,1,225,Apartment,1,Not Found,1,1,1,1,1,Greenwich Village Apt w/ Terrace,https://www.airbnb.com/rooms/6938759,10373211,Not Found,1,$1350,1,1
95,3,Not Found,0,1,Not Found,1,2,1,1,0,Flexible,0,Not Found,Not Found,Not Found,Not Found,Not Found,Not Found,0,1,0,1,No Charge,1,0,0,0,1,1,1,0,1,1,40.75838679285061,6053995,Not Found,-73.98997893819097,Not Found,0,1,165,Apartment,1,Not Found,1,1,0,1,1,Amazing 1BR in Times Sq! Great Loct,https://www.airbnb.com/rooms/6053995,31416442,Not Found,1,$950,1,1
96,2,5.0,1,1,Real Bed,1,1,1,0,0,Moderate,0,6:00 PM,12:00 PM (noon),5.0,$25,4.5,5.0,0,1,0,1,$30 / night after the first guest,0,0,0,0,1,1,0,0,1,1,40.78766925790857,3866538,5.0,-73.97433229722068,Not Found,0,1,110,Apartment,1,Not Found,0,0,0,1,0,Home away from home,https://www.airbnb.com/rooms/3866538,19961114,5.0,1,Not Found,1,1
97,3,5.0,1,1,Real Bed,1,1,1,1,0,Moderate,0,2:00 PM,12:00 PM (noon),4.5,Not Found,3.5,5.0,0,1,0,1,$25 / night after the first guest,1,0,0,0,1,1,0,0,1,1,40.83214121669786,559720,4.5,-73.9402502600904,$1400,0,1,52,Apartment,1,Not Found,1,0,0,1,0,Lovely room in sunny apartment :),https://www.airbnb.com/rooms/559720,2751612,4.5,1,$350,1,1
98,2,4.0,1,1,Real Bed,1,1,1,1,0,Strict,1,Not Found,Not Found,4.5,Not Found,4.0,4.5,0,1,0,1,$19 / night after the first guest,1,1,1,0,1,1,0,0,1,1,40.81942250421547,903972,4.0,-73.94145103472097,Not Found,0,1,45,Apartment,1,Not Found,1,1,0,1,0,Great Bedroom Manhattan ♥♥♥♥♥,https://www.airbnb.com/rooms/903972,4734398,4.5,1,Not Found,1,1
99,2,4.0,1,1,Real Bed,0,1,1,1,1,Flexible,1,Not Found,Not Found,5.0,Not Found,5.0,5.0,0,1,0,1,Not Found,0,0,0,0,1,1,0,0,1,1,40.78315545806478,4547273,5.0,-73.97269498876052,Not Found,0,1,175,Apartment,1,Not Found,1,1,0,1,1,Beautiful Spacious Studio By Park,https://www.airbnb.com/rooms/4547273,10411359,5.0,1,$1100,1,1
100,1,4.5,1,1,Real Bed,1,1,1,1,1,Strict,1,Not Found,Not Found,4.5,Not Found,4.0,4.5,0,1,0,1,Not Found,0,0,0,0,1,1,0,1,1,1,40.78460092919979,760088,5.0,-73.97129765440654,$1900,0,1,119,Apartment,1,$500,0,1,1,1,1,Bedroom for 1 in Brownstone Duplex,https://www.airbnb.com/rooms/760088,3703207,4.5,1,$850,1,1
101,1,Not Found,1,1,Not Found,1,2,1,1,0,Strict,1,9:00 AM,11:00 AM,Not Found,$35,Not Found,Not Found,0,1,1,1,Not Found,0,0,0,0,1,1,0,0,0,1,40.77003214683347,1386742,Not Found,-73.98565551249342,Not Found,0,1,89,Apartment,1,$200,1,0,0,1,0,Sm comfy room Central Park/HellsKit,https://www.airbnb.com/rooms/1386742,40100,Not Found,1,$610,1,1
102,2,Not Found,1,0.5,Real Bed,0,1,1,1,0,Strict,1,Not Found,Not Found,Not Found,Not Found,Not Found,Not Found,0,1,0,1,No Charge,0,0,0,0,1,1,0,0,1,1,40.72714435196223,6108674,Not Found,-73.98827274527656,$2100,0,1,79,Apartment,1,Not Found,0,1,0,1,0,Studio Apartment,https://www.airbnb.com/rooms/6108674,31698014,Not Found,1,Not Found,1,1
103,1,4.5,1,1,Airbed,1,1,1,0,0,Moderate,0,12:00 PM (noon),12:00 PM (noon),4.5,$30,4.5,4.5,0,1,1,1,Not Found,0,0,0,0,1,1,0,0,1,1,40.75000757645313,1903249,5.0,-73.99855991929532,Not Found,0,1,88,Apartment,1,$100,0,0,0,1,0,The heart of Manhattan - NYC,https://www.airbnb.com/rooms/1903249,3187531,4.5,1,Not Found,1,1
104,2,Not Found,1,1,Real Bed,0,1,1,0,0,Flexible,0,Not Found,Not Found,Not Found,$20,Not Found,Not Found,0,1,0,1,No Charge,0,0,0,0,1,1,0,0,1,1,40.7210141462469,6586663,Not Found,-73.9890455515634,Not Found,0,1,95,Apartment,1,Not Found,0,0,0,1,1,Charming Studio in the LES,https://www.airbnb.com/rooms/6586663,34453577,Not Found,1,Not Found,1,1
105,2,4.0,1,1,Real Bed,0,1,1,1,0,Moderate,1,Not Found,Not Found,4.0,$25,4.5,5.0,0,1,1,1,$25 / night after the first guest,0,1,0,0,1,1,1,0,1,1,40.72067714279446,291728,5.0,-73.99676943496239,Not Found,0,1,80,Apartment,1,Not Found,0,1,0,1,1,"Sunny,cozy,quiet studio in Nolita",https://www.airbnb.com/rooms/291728,1457410,4.5,1,Not Found,1,1
106,4,Not Found,1,1,Not Found,1,2,1,1,0,Strict,1,2:00 PM,12:00 PM (noon),Not Found,$70,Not Found,Not Found,0,1,1,1,$20 / night after 2 guests,1,0,0,0,1,1,0,0,1,1,40.78356013998158,6502221,Not Found,-73.97527603058475,Not Found,0,1,185,Apartment,1,Not Found,1,1,0,1,1,Chic 1 BR Near Central Park,https://www.airbnb.com/rooms/6502221,9882029,Not Found,1,$1200,1,1
107,2,Not Found,1,1,Real Bed,1,1,1,1,0,Flexible,0,Not Found,Not Found,Not Found,$50,Not Found,Not Found,0,1,1,1,$80 / night after the first guest,0,0,0,0,1,1,0,0,1,1,40.76233073862158,3475436,Not Found,-73.95992129869599,Not Found,0,1,275,Apartment,1,Not Found,1,0,1,1,1,Trendy 1BR UES on 60's street ,https://www.airbnb.com/rooms/3475436,17505956,Not Found,1,Not Found,1,1
108,4,Not Found,1,1,Not Found,1,2,1,1,0,Flexible,1,Not Found,Not Found,Not Found,Not Found,Not Found,Not Found,0,1,0,1,No Charge,1,0,0,0,1,1,0,0,1,1,40.792112931840784,7218368,Not Found,-73.96856551654756,Not Found,0,1,160,Apartment,1,Not Found,1,1,0,1,1,Great Upper West Side Apartment!,https://www.airbnb.com/rooms/7218368,25822424,Not Found,1,Not Found,1,1
109,2,4.5,0,1,Real Bed,1,1,1,1,0,Strict,0,3:00 PM,11:00 AM,4.5,$20,4.0,5.0,0,1,0,1,$10 / night after the first guest,0,0,0,0,1,1,0,0,0,1,40.796040771607096,1966735,4.0,-73.94237255504528,Not Found,0,1,69,Apartment,1,$100,0,0,0,1,0,"Sunny Private Room, Manhattan!",https://www.airbnb.com/rooms/1966735,10158500,4.5,1,Not Found,1,1
110,1,5.0,1,1,Real Bed,1,1,1,0,0,Strict,0,5:00 PM,11:00 AM,5.0,$10,5.0,5.0,0,1,1,1,Not Found,0,1,1,0,1,1,0,0,1,1,40.78429825543596,6706280,5.0,-73.97038114490515,$2800,0,1,95,Apartment,1,$100,1,1,0,1,1,Central Park Private Room,https://www.airbnb.com/rooms/6706280,32425798,5.0,1,$700,1,1
111,1,Not Found,1,1,Real Bed,1,1,1,0,1,Strict,1,Not Found,Not Found,Not Found,$50,Not Found,Not Found,1,1,1,1,Not Found,0,1,1,0,1,1,0,0,1,1,40.79656164565272,3200713,Not Found,-73.97468562466055,$1590,0,1,76,Apartment,1,$500,0,1,0,1,1,Large Sunny Rm/Private Bath UWS NYC,https://www.airbnb.com/rooms/3200713,16220386,Not Found,1,$450,1,1
112,4,Not Found,1,1,Not Found,1,2,1,1,1,Moderate,1,4:00 PM,11:00 AM,Not Found,$79,Not Found,Not Found,0,1,0,1,No Charge,0,1,1,0,1,1,0,0,0,1,40.80853143913127,6776785,Not Found,-73.93963167979958,Not Found,0,1,115,Townhouse,1,$100,0,1,0,1,1,1 bedroom Duplex Apartment- Private,https://www.airbnb.com/rooms/6776785,11156066,Not Found,1,$940,1,1
113,2,4.5,1,1,Real Bed,1,1,1,1,1,Moderate,1,1:00 PM,12:00 PM (noon),5.0,Not Found,5.0,5.0,0,1,0,1,No Charge,0,0,0,0,1,1,0,0,1,1,40.72268477151503,5670038,5.0,-73.99003715442647,$3500,0,1,140,Apartment,1,Not Found,1,1,0,1,1,Private Room + Bath in East Village,https://www.airbnb.com/rooms/5670038,10807892,4.5,1,$945,1,1
114,6,4.5,1,1,Not Found,2,3,1,1,1,Strict,1,3:00 PM,10:00 AM,4.5,$100,4.5,4.5,0,1,0,1,$15 / night after 3 guests,1,0,0,0,1,1,0,0,1,1,40.7901072594802,3726816,3.5,-73.94250775816987,Not Found,0,1,211,Apartment,1,$500,0,1,0,1,1,Stylish 2BR * Sleeps 6 * C.Park,https://www.airbnb.com/rooms/3726816,8874291,4.0,1,Not Found,1,1
115,2,4.5,1,1,Real Bed,1,1,1,1,1,Strict,1,1:00 PM,11:00 AM,5.0,$50,5.0,5.0,0,1,0,1,No Charge,1,0,0,0,1,1,0,0,1,1,40.79034185146464,6576965,4.0,-73.94774227859997,Not Found,0,1,150,Apartment,1,Not Found,1,1,0,1,1,Private Apartment in Manhattan,https://www.airbnb.com/rooms/6576965,34403316,4.5,1,$1000,1,1
116,2,5.0,1,1,Couch,1,1,1,1,1,Flexible,0,Not Found,Not Found,4.5,Not Found,4.5,4.5,1,1,1,1,No Charge,1,0,0,0,1,1,0,0,1,1,40.816667548700984,5559332,4.0,-73.95433821482128,$1500,0,1,75,Apartment,1,Not Found,0,1,0,1,1,"Enjoy Comfort of a Clean, Cozy Home",https://www.airbnb.com/rooms/5559332,2335474,4.5,1,$450,1,1
117,2,Not Found,1,1,Real Bed,1,1,1,1,0,Flexible,0,Not Found,Not Found,Not Found,Not Found,Not Found,Not Found,0,1,0,1,No Charge,1,0,0,0,1,1,0,0,1,1,40.801048809471055,6880182,Not Found,-73.96709477361789,Not Found,0,1,115,Apartment,1,Not Found,0,0,1,1,0,Spacious One Bedroom on the UWS,https://www.airbnb.com/rooms/6880182,8050394,Not Found,1,Not Found,1,1
118,3,4.5,1,1,Not Found,1,2,1,0,1,Flexible,1,Not Found,Not Found,5.0,$25,4.5,5.0,0,1,0,1,No Charge,1,1,1,0,1,1,0,1,1,1,40.766270411358605,4422686,5.0,-73.95622843926968,$1750,0,1,99,Apartment,1,Not Found,1,1,0,1,1,Beautiful Renovated Loft-Bedroom,https://www.airbnb.com/rooms/4422686,22958067,4.5,1,$600,1,1
119,2,4.5,1,1,Not Found,1,2,1,0,0,Strict,0,3:00 PM,12:00 PM (noon),4.5,$25,4.5,5.0,0,1,0,1,$25 / night after the first guest,0,0,0,0,1,1,0,0,1,1,40.778966022152424,2980355,5.0,-73.95501112878131,Not Found,0,1,65,Apartment,1,$200,0,1,0,1,0,Steps away from subway!,https://www.airbnb.com/rooms/2980355,15098205,4.5,1,Not Found,1,1
120,1,Not Found,1,1,Real Bed,1,1,1,0,1,Flexible,0,Not Found,Not Found,Not Found,Not Found,Not Found,Not Found,1,1,1,1,Not Found,0,0,0,0,1,1,0,0,1,1,40.74892729119399,7048511,Not Found,-73.98817972562843,Not Found,0,1,80,Apartment,1,$600,1,1,0,1,1,34th and 6th ave. perfect location,https://www.airbnb.com/rooms/7048511,36962767,Not Found,1,$550,1,1
121,2,Not Found,0,1,Real Bed,1,1,1,1,0,Flexible,1,Not Found,Not Found,Not Found,Not Found,Not Found,Not Found,0,1,0,1,No Charge,0,0,1,0,1,1,0,0,1,1,40.850311431321956,4541697,Not Found,-73.9323771716193,Not Found,1,1,55,Apartment,1,Not Found,1,1,1,1,0,JUST FOR YOU!!,https://www.airbnb.com/rooms/4541697,23551785,Not Found,1,Not Found,1,1
122,2,5.0,1,1,Real Bed,1,1,1,0,0,Moderate,1,6:00 PM,Not Found,5.0,$10,5.0,5.0,0,1,1,1,Not Found,0,0,1,0,1,1,0,0,1,1,40.82398286325622,6662487,4.5,-73.94845535003384,Not Found,0,1,83,Apartment,1,Not Found,1,1,0,1,1,"Beautiful, Private Room/Manhattan!",https://www.airbnb.com/rooms/6662487,34874378,5.0,1,$494,1,1
123,2,Not Found,1,2,Not Found,1,2,1,1,0,Flexible,1,Not Found,Not Found,Not Found,Not Found,Not Found,Not Found,0,1,0,1,Not Found,1,0,0,0,1,1,0,0,1,1,40.7278639598006,6334808,Not Found,-73.98799707510474,Not Found,0,1,170,Apartment,1,$500,1,1,0,1,1,05/19- 05/27 Big East Village Room,https://www.airbnb.com/rooms/6334808,32979427,Not Found,1,$1100,1,1
124,4,Not Found,1,1,Not Found,1,2,1,1,1,Strict,1,Not Found,Not Found,Not Found,Not Found,Not Found,Not Found,0,1,1,1,$35 / night after 2 guests,1,0,0,0,1,1,0,0,1,1,40.73064183566691,7225919,Not Found,-73.98256791394411,$4000,0,1,175,Apartment,1,$250,0,1,0,1,1,Empire Suite,https://www.airbnb.com/rooms/7225919,37828225,Not Found,1,$1200,1,1
125,2,4.5,0,1,Real Bed,0,1,1,0,0,Moderate,0,1:00 PM,12:00 PM (noon),4.5,$50,4.5,4.5,1,1,1,1,Not Found,0,0,0,0,1,1,1,0,0,1,40.75134652162182,5477986,4.5,-73.96985750848732,Not Found,0,1,110,Apartment,1,Not Found,1,1,0,1,1,Bright and sunny studio ,https://www.airbnb.com/rooms/5477986,19881574,5.0,1,Not Found,1,1
126,2,Not Found,1,1,Not Found,0,2,1,1,1,Flexible,0,Not Found,Not Found,Not Found,$20,Not Found,Not Found,1,1,1,1,$40 / night after the first guest,1,0,0,0,1,1,0,0,1,1,40.75860363086542,6197550,Not Found,-73.99152103345148,Not Found,0,1,92,Apartment,1,Not Found,1,1,0,1,1,LARGE STUDIO-TIMES SQUARE!!,https://www.airbnb.com/rooms/6197550,2892827,Not Found,1,Not Found,1,1
127,2,4.5,1,1,Real Bed,1,1,1,0,0,Moderate,1,2:00 PM,12:00 PM (noon),5.0,$25,4.0,5.0,0,1,1,1,No Charge,0,0,0,0,1,1,0,0,1,1,40.76427681076052,1751581,4.5,-73.99330401525883,Not Found,0,1,99,Apartment,1,Not Found,1,1,0,1,0,Sunny Spacious Room in Midtown NYC,https://www.airbnb.com/rooms/1751581,8775469,4.5,1,Not Found,1,1
128,3,Not Found,1,2,Real Bed,1,1,1,0,0,Flexible,1,Not Found,Not Found,Not Found,$15,Not Found,Not Found,0,1,1,1,$20 / night after 2 guests,1,1,0,1,1,1,0,0,1,1,40.80536842457402,7089602,Not Found,-73.96434830913643,Not Found,1,1,110,Apartment,1,Not Found,1,1,0,1,0,Sunny Broadway/Central Park King BD,https://www.airbnb.com/rooms/7089602,5117684,Not Found,1,Not Found,1,1
129,2,4.5,0,1,Real Bed,1,1,1,0,0,Moderate,0,Not Found,Not Found,5.0,Not Found,4.5,5.0,0,1,1,1,No Charge,0,0,0,0,1,1,0,0,1,1,40.84769425002732,4546034,4.0,-73.93512343556873,Not Found,0,1,75,Apartment,1,$150,0,1,0,1,1,1BR by 1&A trains,https://www.airbnb.com/rooms/4546034,23570593,4.0,1,Not Found,1,1
130,6,Not Found,1,1,Not Found,2,4,1,0,0,Strict,1,Not Found,Not Found,Not Found,Not Found,Not Found,Not Found,0,1,1,1,No Charge,1,1,1,0,1,1,0,0,1,1,40.7727481512413,6749156,Not Found,-73.98784658771129,Not Found,0,1,349,Apartment,1,Not Found,1,1,0,1,0,Columbus Circle 2BR! - New/Clean,https://www.airbnb.com/rooms/6749156,35336625,Not Found,1,Not Found,1,1
131,2,5.0,1,1,Real Bed,1,1,1,1,1,Strict,1,2:00 PM,12:00 PM (noon),5.0,$50,5.0,5.0,0,1,1,1,$20 / night after the first guest,0,1,1,0,1,1,0,0,1,1,40.851264317462494,5975179,5.0,-73.93578206436138,Not Found,0,1,95,Apartment,1,$300,1,1,1,1,1,"Private BR, Artistic & Bright apt",https://www.airbnb.com/rooms/5975179,9919894,5.0,1,Not Found,1,1
132,6,4.0,1,1,Not Found,1,3,1,0,0,Strict,0,3:00 PM,11:00 AM,4.5,$120,4.5,4.5,0,1,0,1,No Charge,0,0,0,0,1,1,0,0,0,1,40.745463140822125,779001,4.5,-73.99206988062457,Not Found,0,1,275,Apartment,1,$500,0,0,0,1,0,Chelsea Loft Great For Families,https://www.airbnb.com/rooms/779001,290104,4.0,1,Not Found,1,1
133,2,5.0,1,2,Pull-out Sofa,1,1,1,1,1,Moderate,1,3:00 PM,11:00 AM,5.0,$20,4.5,4.5,1,1,1,1,$10 / night after the first guest,0,0,1,0,1,1,0,0,1,1,40.764193857770586,535237,5.0,-73.99449379940346,$1985,0,1,69,Apartment,1,$300,0,1,0,1,0,Times Sq/HK/Midtown Flat,https://www.airbnb.com/rooms/535237,2290871,4.5,1,Not Found,1,1
134,2,Not Found,1,1,Real Bed,0,1,1,0,0,Flexible,0,Not Found,Not Found,Not Found,$50,Not Found,Not Found,1,1,1,1,No Charge,1,0,0,0,1,1,0,0,1,1,40.760883859450665,6206009,Not Found,-73.98461288055599,Not Found,0,1,180,Apartment,1,Not Found,1,1,0,1,1,Luxury studio close to time square,https://www.airbnb.com/rooms/6206009,57877,Not Found,1,$1150,1,1
135,4,Not Found,1,1,Real Bed,0,1,1,1,1,Moderate,0,Not Found,Not Found,Not Found,Not Found,Not Found,Not Found,0,1,0,1,No Charge,1,0,0,0,1,1,0,0,1,1,40.781460985977176,6692213,Not Found,-73.94829262347687,Not Found,0,1,125,Apartment,1,Not Found,0,1,0,1,1,Spacious Upper East Side Studio,https://www.airbnb.com/rooms/6692213,6847312,Not Found,1,Not Found,1,1
136,3,Not Found,0,1,Real Bed,0,1,1,1,0,Flexible,1,Not Found,Not Found,Not Found,Not Found,Not Found,Not Found,0,1,1,1,No Charge,0,0,0,0,1,1,0,0,0,1,40.81430703009548,7047216,Not Found,-73.93879950833671,Not Found,0,1,125,Apartment,1,Not Found,1,1,0,1,0,"Sun-filled, newly renovated studio",https://www.airbnb.com/rooms/7047216,14900880,Not Found,1,$740,1,1
137,5,5.0,1,2,Not Found,2,2,1,1,0,Moderate,0,Not Found,Not Found,5.0,$50,4.5,5.0,0,1,0,1,No Charge,1,0,0,0,1,1,0,0,0,1,40.782957642120465,3175445,5.0,-73.97741525715111,Not Found,1,1,275,Apartment,1,$200,0,0,0,1,1,2 Bed 2 Bath UWS Private Roof Terr,https://www.airbnb.com/rooms/3175445,16102417,5.0,1,$1700,1,1
138,2,Not Found,1,1,Real Bed,1,1,1,1,0,Moderate,0,5:00 PM,12:00 PM (noon),Not Found,$40,Not Found,Not Found,0,1,1,1,Not Found,1,1,0,0,1,1,0,0,1,1,40.808605406416014,6922550,Not Found,-73.93946621201047,Not Found,0,1,90,Apartment,1,Not Found,1,1,0,1,0,Big room in beautiful & new apt!,https://www.airbnb.com/rooms/6922550,24481091,Not Found,1,Not Found,1,1
139,2,4.5,1,1,Real Bed,0,1,1,0,0,Moderate,1,Not Found,Not Found,5.0,Not Found,5.0,5.0,0,1,0,1,No Charge,0,0,0,0,1,1,0,0,1,1,40.7417044519103,4902593,5.0,-74.00024377058519,Not Found,0,1,120,Apartment,1,$200,1,0,0,1,0,Cute studio Chelsea/Meatpacking,https://www.airbnb.com/rooms/4902593,17441971,4.5,1,Not Found,1,1
140,2,5.0,1,1,Real Bed,1,1,1,1,1,Strict,0,2:00 PM,12:00 PM (noon),4.5,Not Found,5.0,4.5,0,1,1,1,No Charge,0,0,0,0,1,1,0,0,1,1,40.727018697194865,4841016,5.0,-73.99383702874616,Not Found,0,1,180,Apartment,1,$200,1,0,0,1,1,Spacious Loft @Bleecker & Lafayette,https://www.airbnb.com/rooms/4841016,7262475,4.5,1,Not Found,1,1
141,2,4.5,0,1,Real Bed,1,1,1,1,0,Moderate,1,1:00 PM,11:00 AM,5.0,$60,4.5,5.0,0,1,0,1,$10 / night after the first guest,0,0,0,0,1,1,0,0,0,1,40.846210313413664,4477053,4.0,-73.9355075009042,Not Found,0,1,75,Apartment,1,Not Found,0,1,0,1,0,Modern Apt in the Heights,https://www.airbnb.com/rooms/4477053,1772284,5.0,1,Not Found,1,1
142,2,4.5,1,1.5,Real Bed,1,1,1,0,1,Moderate,0,Not Found,Not Found,5.0,$20,4.0,5.0,1,1,1,1,$20 / night after the first guest,1,0,1,0,1,1,0,0,1,1,40.798301215289456,4541089,4.0,-73.94788373022057,$2400,1,1,99,Apartment,1,Not Found,1,1,0,1,1,Amazing Bedroom on Central Park,https://www.airbnb.com/rooms/4541089,20536731,4.5,1,$600,1,1
143,2,Not Found,0,1,Real Bed,1,1,1,1,0,Flexible,1,Not Found,Not Found,Not Found,Not Found,Not Found,Not Found,0,1,1,1,Not Found,1,1,1,0,1,1,0,0,1,1,40.80330834386784,1843891,Not Found,-73.96508238613337,Not Found,0,1,72,Apartment,1,$100,0,1,0,1,0,Upper West Side - Private Room,https://www.airbnb.com/rooms/1843891,4138469,Not Found,1,Not Found,1,1
144,3,5.0,1,1,Not Found,1,3,1,1,0,Moderate,1,2:00 PM,12:00 PM (noon),5.0,Not Found,5.0,5.0,0,1,0,1,$15 / night after 2 guests,0,0,0,1,1,1,0,0,1,1,40.83944668194758,1732893,4.0,-73.93615493682407,Not Found,0,1,85,Apartment,1,Not Found,1,1,0,1,1,Beautiful Manhattan Apartment!,https://www.airbnb.com/rooms/1732893,9129754,4.5,1,Not Found,1,1
145,2,4.5,1,1,Futon,1,1,1,0,1,Moderate,0,1:00 PM,12:00 PM (noon),5.0,Not Found,4.0,5.0,0,1,0,1,Not Found,0,0,0,0,1,1,0,0,1,1,40.78951574105167,4226098,5.0,-73.9762074756785,$3700,0,1,88,Apartment,1,Not Found,0,0,0,1,1,Affordable Convenient Upper W 80's,https://www.airbnb.com/rooms/4226098,21930989,4.5,1,$975,1,1
146,3,4.5,1,1,Not Found,Not Found,2,1,1,1,Strict,0,4:00 PM,11:00 AM,5.0,$75,5.0,5.0,0,1,0,1,$35 / night after 2 guests,1,0,0,0,1,1,0,0,1,1,40.72244869277738,27883,5.0,-73.98526960801873,$1800,0,1,100,Apartment,1,$500,0,0,0,1,1,East Village Sanctuary,https://www.airbnb.com/rooms/27883,120223,4.5,1,Not Found,1,1
147,2,Not Found,1,1,Real Bed,1,1,1,1,0,Moderate,0,Not Found,Not Found,Not Found,$40,Not Found,Not Found,0,1,1,1,No Charge,0,0,0,1,1,1,0,0,1,1,40.80797295398925,6255325,Not Found,-73.93991893315611,Not Found,0,1,80,Apartment,1,Not Found,1,0,1,1,0,Bright room in the heart of Harlem,https://www.airbnb.com/rooms/6255325,24481091,Not Found,1,Not Found,1,1
148,2,4.5,1,1,Real Bed,0,1,1,1,0,Strict,1,3:00 PM,11:00 AM,5.0,$65,3.5,5.0,0,1,0,1,$10 / night after the first guest,0,0,0,0,1,1,0,0,1,1,40.774590802912066,4453564,4.5,-73.95191746916576,$3500,0,1,148,Apartment,1,$100,1,1,0,1,0,CHARMING BRIGHT & COZY UES STUDIO,https://www.airbnb.com/rooms/4453564,107567,4.0,1,$980,1,1
149,2,5.0,1,1,Real Bed,1,1,1,1,1,Strict,1,Not Found,Not Found,5.0,Not Found,5.0,5.0,0,1,1,1,No Charge,1,1,1,0,1,1,0,0,1,1,40.85227578104523,6249050,4.5,-73.93498181932405,Not Found,0,1,72,Apartment,1,Not Found,1,1,0,1,1,Huge 12 by 18 Ft Room in Manhattan!,https://www.airbnb.com/rooms/6249050,18418581,5.0,1,Not Found,1,1
150,2,4.5,1,1,Real Bed,1,1,1,1,0,Strict,1,Not Found,Not Found,4.5,Not Found,4.0,4.5,0,1,0,1,$19 / night after the first guest,1,1,1,0,1,1,0,0,1,1,40.820953488922235,903947,4.0,-73.93864076981225,Not Found,0,1,45,Apartment,1,Not Found,1,1,0,1,0,Beautiful Bedroom Manhattan ♥♥♥♥♥,https://www.airbnb.com/rooms/903947,4734398,4.5,1,Not Found,1,1
151,4,Not Found,0,1,Not Found,0,2,0,0,0,Flexible,0,Not Found,Not Found,Not Found,Not Found,Not Found,Not Found,0,0,0,0,No Charge,0,0,0,0,0,0,0,0,0,0,40.74432933311156,7223429,Not Found,-73.98247092828467,Not Found,0,0,160,Apartment,0,Not Found,0,0,0,0,0,Pinterest-esque space for stay,https://www.airbnb.com/rooms/7223429,26959087,Not Found,0,Not Found,0,0
152,2,5.0,1,1,Real Bed,1,1,1,1,0,Strict,1,3:00 PM,11:00 AM,5.0,$30,5.0,5.0,0,1,0,1,$20 / night after the first guest,0,0,0,0,1,1,0,0,1,1,40.72509621944964,4707862,5.0,-73.98786820493221,Not Found,0,1,190,Apartment,1,$200,0,1,0,1,1,Lovely Apt in Heart of East Village,https://www.airbnb.com/rooms/4707862,5450744,5.0,1,$1250,1,1
153,1,Not Found,1,1,Real Bed,1,1,1,1,0,Moderate,1,Not Found,Not Found,Not Found,$20,Not Found,Not Found,0,1,0,1,Not Found,1,1,0,0,1,1,1,0,0,1,40.78428375012741,6208855,Not Found,-73.94872286939606,Not Found,0,1,85,Apartment,1,$100,1,1,0,1,1,Upper East Side - Private Room,https://www.airbnb.com/rooms/6208855,32195844,Not Found,1,$579,1,1
154,3,Not Found,1,1,Real Bed,1,1,1,1,1,Flexible,1,Not Found,Not Found,Not Found,$75,Not Found,Not Found,0,1,0,1,No Charge,0,0,0,0,1,1,0,0,1,1,40.73660838657042,7195748,Not Found,-74.00501196078042,Not Found,0,1,200,Apartment,1,Not Found,1,1,0,1,1,Gorgeous 1 BR West Village Apt!,https://www.airbnb.com/rooms/7195748,37681681,Not Found,1,Not Found,1,1
155,2,4.5,1,1,Pull-out Sofa,1,1,1,1,0,Strict,0,Not Found,Not Found,4.5,Not Found,4.5,4.5,0,1,0,1,$30 / night after the first guest,0,0,0,0,1,1,0,0,1,1,40.8040924018343,2858245,4.5,-73.95882836300034,Not Found,0,1,56,Apartment,1,Not Found,1,0,0,1,0,"UWS, near Central Park, subway",https://www.airbnb.com/rooms/2858245,2289652,4.5,1,Not Found,1,1
156,2,Not Found,1,1,Real Bed,1,1,1,1,0,Flexible,1,10:00 AM,3:00 PM,Not Found,Not Found,Not Found,Not Found,0,1,0,1,$20 / night after the first guest,1,1,1,0,1,1,0,0,1,1,40.724605651216834,7221177,Not Found,-74.00236098939567,$1999,1,1,88,Apartment,1,$95,1,1,0,1,1,Soho Artists Apartment,https://www.airbnb.com/rooms/7221177,37802442,Not Found,1,$550,1,1
157,2,5.0,1,1,Futon,1,1,1,1,1,Strict,0,Not Found,Not Found,5.0,$30,5.0,5.0,0,1,0,1,$20 / night after the first guest,0,0,0,0,1,1,0,0,1,1,40.784776798292796,6661700,5.0,-73.97838072626305,Not Found,0,1,75,Apartment,1,Not Found,0,0,0,1,1,Convenient UWS near Park and Subway,https://www.airbnb.com/rooms/6661700,34868208,5.0,1,Not Found,1,1
158,5,Not Found,1,1,Not Found,1,2,1,0,0,Strict,0,Not Found,4:00 PM,Not Found,Not Found,Not Found,Not Found,0,1,0,1,No Charge,0,0,0,0,1,1,0,0,0,1,40.781699045545075,7161143,Not Found,-73.9843852884961,Not Found,0,1,140,Apartment,1,Not Found,1,1,0,1,0,Charming loft in Upper West Side,https://www.airbnb.com/rooms/7161143,17199646,Not Found,1,$1000,1,1
159,2,5.0,1,1,Real Bed,1,1,1,1,0,Moderate,1,Not Found,Not Found,5.0,$20,4.5,5.0,0,1,1,1,No Charge,0,0,0,0,1,1,0,0,1,1,40.72825845592812,5180654,5.0,-73.98715948396938,Not Found,0,1,105,Apartment,1,Not Found,1,1,0,1,0,Quiet room on Saint Marks Pl,https://www.airbnb.com/rooms/5180654,6261649,4.5,1,Not Found,1,1
160,2,4.5,1,1,Real Bed,1,1,1,1,1,Strict,0,Not Found,Not Found,5.0,$50,5.0,5.0,0,1,0,1,Not Found,1,0,0,0,1,1,1,0,0,1,40.783014406821984,5699348,4.5,-73.95085013470414,$4000,0,1,160,Apartment,1,$150,0,1,0,1,1,Spacious UES 1 bedroom apartment,https://www.airbnb.com/rooms/5699348,8686625,4.5,1,$1100,1,1
161,1,Not Found,1,1,Real Bed,1,1,1,1,1,Flexible,0,Not Found,Not Found,Not Found,Not Found,Not Found,Not Found,0,1,0,1,Not Found,0,1,0,0,1,1,0,0,1,1,40.73529127153971,6853273,Not Found,-73.98029856877335,Not Found,0,1,45,Apartment,1,Not Found,1,1,0,1,1,Furnished bedroom in 2BR share,https://www.airbnb.com/rooms/6853273,4487277,Not Found,1,$280,1,1
162,2,Not Found,1,1,Real Bed,0,1,1,1,0,Flexible,0,Not Found,Not Found,Not Found,Not Found,Not Found,Not Found,0,1,0,1,No Charge,0,0,0,0,1,1,0,0,1,1,40.73815292335909,7037453,Not Found,-74.00179461703264,Not Found,0,1,145,Condominium,1,Not Found,0,1,0,1,0,West Village/ Chelsea studio,https://www.airbnb.com/rooms/7037453,4419321,Not Found,1,Not Found,1,1
163,2,4.5,0,1,Real Bed,1,1,1,1,0,Strict,1,Not Found,Not Found,4.5,$97,4.5,4.5,0,1,0,1,Not Found,1,0,0,0,1,1,0,0,0,1,40.79765249985199,4412533,3.5,-73.94021982972873,Not Found,0,1,61,Apartment,1,$97,0,1,0,1,0,cozy tucked away in el barrio,https://www.airbnb.com/rooms/4412533,22904933,4.5,1,$385,1,1
164,2,4.5,1,1,Real Bed,0,1,1,0,1,Strict,1,Not Found,Not Found,4.5,$50,4.5,5.0,0,1,1,1,No Charge,0,0,0,0,1,1,1,0,1,1,40.77715959319361,2248956,4.5,-73.9874954510135,Not Found,0,1,150,Apartment,1,$100,1,1,0,1,1,Cozy Place in Manhattan ,https://www.airbnb.com/rooms/2248956,11485962,4.5,1,Not Found,1,1
165,2,4.5,1,1,Real Bed,0,1,1,1,1,Flexible,0,Not Found,Not Found,5.0,Not Found,5.0,5.0,0,1,0,1,No Charge,1,0,0,1,1,1,0,0,0,1,40.7703948427951,6686629,4.5,-73.94949222613587,Not Found,1,1,120,Apartment,1,Not Found,0,1,0,1,0,Bright spacious UES Studio,https://www.airbnb.com/rooms/6686629,34998131,4.5,1,Not Found,1,1
166,1,4.5,1,1,Real Bed,1,1,1,1,0,Moderate,1,Not Found,Not Found,5.0,$25,4.0,5.0,0,1,0,1,Not Found,0,1,0,0,1,1,0,0,1,1,40.75882215163689,3802538,5.0,-73.99167573673617,Not Found,0,1,99,Apartment,1,$99,1,1,0,1,0,Best location in NYC,https://www.airbnb.com/rooms/3802538,16677444,4.0,1,Not Found,1,1
167,2,5.0,1,1,Not Found,1,2,1,0,0,Flexible,1,Not Found,Not Found,5.0,Not Found,5.0,5.0,1,1,1,1,No Charge,1,1,0,0,1,1,1,0,1,1,40.794352880549546,4045195,4.0,-73.94260864005807,Not Found,1,1,120,Apartment,1,Not Found,0,1,0,1,1,A room with a private bathroom ,https://www.airbnb.com/rooms/4045195,20974315,5.0,1,$750,1,1
168,3,4.5,1,1,Real Bed,1,1,1,1,1,Strict,0,3:00 PM,12:00 PM (noon),5.0,$15,4.0,5.0,1,1,1,1,$10 / night after 2 guests,0,0,0,0,1,1,0,0,1,1,40.799919463502114,1916694,4.0,-73.93737825785918,Not Found,0,1,95,Apartment,1,Not Found,0,0,1,1,1,Room with private patio access!,https://www.airbnb.com/rooms/1916694,9939234,4.5,1,Not Found,1,1
169,1,Not Found,1,1,Real Bed,1,1,1,1,0,Moderate,0,Not Found,Not Found,Not Found,$50,Not Found,Not Found,0,1,1,1,Not Found,0,0,0,0,1,1,0,0,1,1,40.86954772364625,5363210,Not Found,-73.91784256300696,$1200,0,1,65,Apartment,1,$200,1,0,0,1,1,Private Room in Gorgeous Apartment,https://www.airbnb.com/rooms/5363210,27506188,Not Found,1,$400,1,1
170,4,4.5,1,1,Not Found,0,2,1,1,0,Flexible,0,3:00 PM,12:00 PM (noon),5.0,$35,4.5,5.0,0,1,1,1,$10 / night after 2 guests,0,0,0,1,1,1,0,0,1,1,40.820289812868374,2119216,4.0,-73.93861162314946,Not Found,0,1,80,Apartment,1,$100,1,1,0,1,1,"Private, Clean & Zen NYC Flat!",https://www.airbnb.com/rooms/2119216,10806025,4.5,1,Not Found,1,1
171,2,Not Found,1,1,Real Bed,0,1,1,1,0,Flexible,1,Not Found,Not Found,Not Found,Not Found,Not Found,Not Found,1,1,1,1,No Charge,0,0,0,0,1,1,0,0,1,1,40.75859877079345,4662289,Not Found,-73.98934012780445,Not Found,0,1,95,Apartment,1,Not Found,0,1,0,1,0,Cozy Studio in Times Square,https://www.airbnb.com/rooms/4662289,24124559,Not Found,1,$650,1,1
172,1,4.0,1,1,Real Bed,1,1,1,1,1,Flexible,0,3:00 PM,12:00 PM (noon),5.0,$10,4.0,4.5,1,1,1,1,Not Found,0,1,1,0,1,1,1,0,1,1,40.79470836552418,4540408,5.0,-73.97117251270649,$1250,0,1,75,Apartment,1,Not Found,1,1,0,1,1,Manhattan Central park cozy room,https://www.airbnb.com/rooms/4540408,15201466,4.0,1,$450,1,1
173,2,Not Found,1,1,Real Bed,1,1,1,1,0,Moderate,1,Not Found,Not Found,Not Found,Not Found,Not Found,Not Found,1,1,1,1,$60 / night after the first guest,0,0,1,0,1,1,0,0,1,1,40.742047085089226,7221946,Not Found,-73.98116206764384,$1700,1,1,90,Apartment,1,Not Found,1,1,1,1,1,Kips Bay Quirky and Colorful Apt!,https://www.airbnb.com/rooms/7221946,15421273,Not Found,1,$500,1,1
174,3,4.0,1,1,Not Found,1,2,1,1,0,Flexible,0,Not Found,Not Found,5.0,Not Found,4.5,5.0,0,1,0,1,No Charge,0,0,0,1,1,1,0,0,1,1,40.826096190245316,5806273,4.5,-73.95138647464778,$1390,0,1,65,Apartment,1,Not Found,1,1,0,1,1,Great place to stay!,https://www.airbnb.com/rooms/5806273,23719409,4.5,1,$390,1,1
175,3,5.0,1,1,Real Bed,1,1,1,1,0,Strict,0,5:00 PM,12:00 PM (noon),5.0,Not Found,4.5,5.0,0,1,1,1,$15 / night after 2 guests,1,0,0,0,1,1,0,0,1,1,40.85029260028094,424917,4.0,-73.93316028394469,Not Found,0,1,75,Apartment,1,Not Found,0,0,0,1,1,Boutique Hotel Styled Apartment!,https://www.airbnb.com/rooms/424917,1533019,4.5,1,Not Found,1,1
176,4,4.5,1,1,Real Bed,1,1,1,1,1,Moderate,1,2:00 PM,11:00 AM,5.0,$50,5.0,5.0,0,1,0,1,$10 / night after 2 guests,1,1,1,0,1,1,0,0,1,1,40.80575280045636,4948364,5.0,-73.94952921183226,Not Found,0,1,100,House,1,$100,0,1,0,1,1,Private Studio in NYC Brownstone,https://www.airbnb.com/rooms/4948364,20665977,5.0,1,Not Found,1,1
177,2,5.0,1,1,Airbed,1,1,1,1,1,Strict,0,Not Found,12:00 PM (noon),5.0,$45,4.5,5.0,0,1,0,1,Not Found,0,0,0,0,1,1,0,0,1,1,40.78796095207412,1229274,4.5,-73.9580672907735,Not Found,0,1,94,Apartment,1,Not Found,0,1,0,1,1,SUNNY APARTMENT Nr CENTRAL PARK!,https://www.airbnb.com/rooms/1229274,6146579,5.0,1,Not Found,1,1
178,2,4.5,1,1,Not Found,1,2,1,1,0,Flexible,0,Not Found,Not Found,4.5,$25,4.5,4.5,0,1,0,1,$10 / night after the first guest,1,1,0,0,1,1,0,0,1,1,40.79767554108754,6541532,4.0,-73.95919391417812,$2200,0,1,90,Apartment,1,Not Found,0,1,0,1,0,Amazing UWS /Central Park West,https://www.airbnb.com/rooms/6541532,33975302,4.0,1,$625,1,1
179,2,4.5,1,1,Real Bed,1,1,1,1,0,Moderate,1,1:00 PM,11:00 AM,5.0,Not Found,4.5,5.0,0,1,0,1,No Charge,0,1,1,0,1,1,1,0,1,1,40.75731103682807,4261693,5.0,-73.98975649895284,Not Found,0,1,100,Apartment,1,Not Found,1,1,0,1,1,TimeSquare / Private Small RoOM,https://www.airbnb.com/rooms/4261693,10859211,4.5,1,Not Found,1,1
180,2,4.0,0,1,Real Bed,1,1,1,0,1,Moderate,0,5:00 PM,12:00 PM (noon),4.5,Not Found,3.0,5.0,0,1,1,1,No Charge,0,0,0,0,1,1,0,0,1,1,40.785228330620924,5874385,4.0,-73.94431223285419,Not Found,0,1,70,Apartment,1,Not Found,0,1,0,1,1,Private Room Available in Manhattan,https://www.airbnb.com/rooms/5874385,30504672,4.0,1,Not Found,1,1
181,2,Not Found,1,1,Real Bed,1,1,1,1,0,Strict,0,Not Found,Not Found,Not Found,$70,Not Found,Not Found,0,1,1,1,No Charge,0,0,1,0,1,1,0,0,1,1,40.783031979934265,5568574,Not Found,-73.97679278367127,Not Found,0,1,135,Apartment,1,$200,0,1,0,1,0,Clean&Spacious 1BR in heart of UWS,https://www.airbnb.com/rooms/5568574,28869724,Not Found,1,Not Found,1,1
182,2,Not Found,1,1,Real Bed,1,1,1,1,1,Moderate,1,Not Found,Not Found,Not Found,Not Found,Not Found,Not Found,0,1,1,1,No Charge,0,0,0,0,1,1,0,0,1,1,40.82231461714985,6933326,Not Found,-73.95626311944488,Not Found,0,1,99,Apartment,1,$200,1,1,0,1,1,NYC ROOM STUNNING LIGHT RIVER VIEW!,https://www.airbnb.com/rooms/6933326,25168888,Not Found,1,$459,1,1
183,2,Not Found,1,1,Real Bed,1,1,1,1,1,Flexible,1,Not Found,Not Found,Not Found,$25,Not Found,Not Found,0,1,0,1,Not Found,0,0,0,0,1,1,0,0,1,1,40.7180931411854,6971670,Not Found,-73.98964767091064,Not Found,0,1,120,Apartment,1,$100,1,1,0,1,1,Bright 1 Bdrm In Heart of LES,https://www.airbnb.com/rooms/6971670,8773106,Not Found,1,$800,1,1
184,2,4.5,1,1,Real Bed,1,1,1,0,0,Moderate,0,10:00 AM,12:00 PM (noon),4.5,$25,4.0,4.5,0,1,0,1,No Charge,0,0,0,0,1,1,0,0,1,1,40.76097727650313,1218003,5.0,-73.99499495169071,Not Found,0,1,90,Apartment,1,Not Found,0,0,0,1,1,Private room in Midtown Manhattan,https://www.airbnb.com/rooms/1218003,6626827,4.5,1,$550,1,1
185,4,4.5,0,1,Not Found,0,2,1,1,0,Strict,0,1:00 PM,11:00 AM,5.0,$50,5.0,5.0,0,1,1,1,$20 / night after 2 guests,1,0,0,0,1,1,0,0,0,1,40.83669236719931,4191323,4.5,-73.94260789497812,Not Found,0,1,120,Apartment,1,Not Found,0,0,0,1,0, Apartment 3,https://www.airbnb.com/rooms/4191323,1163315,4.5,1,Not Found,1,1
186,2,Not Found,1,1,Real Bed,1,1,1,1,1,Flexible,1,Not Found,Not Found,Not Found,$50,Not Found,Not Found,0,1,0,1,Not Found,0,0,0,0,1,1,0,0,1,1,40.72414294413188,6846620,Not Found,-73.99508362213336,$3678,0,1,197,Apartment,1,Not Found,0,1,0,1,1,Entire Home in Downtown NYC,https://www.airbnb.com/rooms/6846620,4714528,Not Found,1,$1234,1,1
187,2,Not Found,1,1,Real Bed,1,1,1,1,1,Strict,1,3:00 PM,2:00 PM,Not Found,$70,Not Found,Not Found,1,1,1,1,Not Found,0,1,0,0,1,1,0,0,1,1,40.724587994366466,5940491,Not Found,-73.99543420861248,Not Found,0,1,200,Apartment,1,$150,1,1,0,1,1,Perfectly located 1 bedroom in Noho,https://www.airbnb.com/rooms/5940491,30840761,Not Found,1,Not Found,1,1
188,2,5.0,1,1,Real Bed,0,1,1,1,1,Moderate,1,Not Found,Not Found,5.0,$60,4.5,5.0,0,1,0,1,No Charge,1,0,0,0,1,1,0,0,1,1,40.7883179415022,1716285,5.0,-73.97699509735315,Not Found,1,1,120,Apartment,1,Not Found,1,1,0,1,1,Sunny Upper West Studio,https://www.airbnb.com/rooms/1716285,3421804,4.5,1,Not Found,1,1
189,5,Not Found,1,1,Not Found,0,2,1,0,0,Strict,1,2:00 PM,11:00 AM,Not Found,$50,Not Found,Not Found,0,1,0,1,$25 / night after the first guest,0,0,1,0,1,1,0,0,1,1,40.76850019274756,6569412,Not Found,-73.98104639542849,Not Found,0,1,200,Apartment,1,$100,1,1,0,1,1,"3 mins to Central Park, Time Square",https://www.airbnb.com/rooms/6569412,22603088,Not Found,1,Not Found,1,1
190,2,4.5,1,1.5,Real Bed,1,1,1,1,1,Moderate,1,3:00 PM,1:00 PM,5.0,Not Found,5.0,5.0,0,1,1,1,No Charge,1,0,1,0,1,1,0,0,1,1,40.82351239756453,4615631,4.5,-73.94046663865215,$2100,0,1,85,Apartment,1,Not Found,1,1,0,1,1,Charming Bedroom in Cozy NYC Apt.,https://www.airbnb.com/rooms/4615631,22350590,5.0,1,$550,1,1
191,2,4.5,1,1.5,Real Bed,1,1,1,0,0,Strict,1,2:00 PM,11:00 AM,4.0,$40,4.0,5.0,0,1,0,1,No Charge,0,0,0,0,1,1,0,0,0,1,40.75702463303342,6545163,5.0,-73.99799215315544,$2300,0,1,80,Apartment,1,$150,0,1,0,1,1,Cozy Room #1  TIMES SQUARE :),https://www.airbnb.com/rooms/6545163,6430044,4.5,1,$550,1,1
192,2,5.0,1,0,Not Found,1,2,1,1,0,Strict,0,Not Found,Not Found,4.5,$15,5.0,5.0,0,1,1,1,$20 / night after the first guest,0,0,0,0,1,1,0,0,0,1,40.797937906684304,4568601,4.0,-73.94138951359906,Not Found,0,1,75,Apartment,1,Not Found,1,1,0,1,0,Trendy Huge Bedroom ★MANHATTAN★,https://www.airbnb.com/rooms/4568601,10280470,5.0,1,Not Found,1,1
193,2,5.0,1,1,Real Bed,0,1,1,1,1,Strict,0,3:00 PM,12:00 PM (noon),5.0,$50,5.0,5.0,0,1,1,1,Not Found,0,0,0,0,1,1,0,0,1,1,40.756188802894926,568392,4.5,-73.99950640066555,Not Found,0,1,145,Apartment,1,$150,1,0,0,1,1,CLEAN & CENTRAL Manhattan APT,https://www.airbnb.com/rooms/568392,2796909,5.0,1,Not Found,1,1
194,4,Not Found,1,1,Not Found,1,3,1,0,0,Flexible,0,Not Found,Not Found,Not Found,$60,Not Found,Not Found,0,1,1,1,$100 / night after 3 guests,1,0,0,0,1,1,0,0,0,1,40.75901476345108,6187301,Not Found,-73.96441542868634,Not Found,0,1,200,Apartment,1,Not Found,0,1,0,1,1,Gorgeous Spacious Studio Apartment,https://www.airbnb.com/rooms/6187301,6724947,Not Found,1,Not Found,1,1
195,5,Not Found,1,1.5,Not Found,2,2,1,0,0,Strict,0,2:00 PM,12:00 PM (noon),Not Found,$80,Not Found,Not Found,0,1,0,1,$20 / night after 2 guests,1,0,0,0,1,1,0,0,1,1,40.71296552413838,4694625,Not Found,-73.9943419276306,Not Found,0,1,250,Apartment,1,$400,1,1,0,1,0,"Chic 2Br/2bath, Lower Manhattan ",https://www.airbnb.com/rooms/4694625,1843216,Not Found,1,$1400,1,1
196,2,4.5,1,1,Real Bed,0,1,1,1,0,Moderate,1,Not Found,Not Found,5.0,$50,4.0,5.0,0,1,1,1,No Charge,0,0,0,0,1,1,0,0,1,1,40.85670820137835,6077847,4.5,-73.93309868762177,Not Found,0,1,100,Apartment,1,Not Found,1,1,0,1,0,Spacious and sunny studio,https://www.airbnb.com/rooms/6077847,23038032,4.5,1,$600,1,1
197,3,Not Found,0,1,Not Found,2,2,1,1,1,Flexible,1,Not Found,Not Found,Not Found,Not Found,Not Found,Not Found,0,1,0,1,No Charge,1,1,1,0,1,1,0,0,1,1,40.74420482482951,6724351,Not Found,-73.97749335889469,Not Found,1,1,190,Apartment,1,Not Found,1,1,0,1,1,Classic NY 2 BR on Treelined Street,https://www.airbnb.com/rooms/6724351,2095050,Not Found,1,Not Found,1,1
198,1,Not Found,1,1,Real Bed,1,1,1,0,1,Flexible,1,Not Found,Not Found,Not Found,Not Found,Not Found,Not Found,0,1,0,1,Not Found,0,0,0,0,1,1,0,0,0,1,40.76496693245886,6238281,Not Found,-73.99330248503534,Not Found,0,1,175,Apartment,1,Not Found,0,1,0,1,0,One bedroom in Midtown,https://www.airbnb.com/rooms/6238281,32374510,Not Found,1,Not Found,1,1
199,2,4.5,1,1,Real Bed,1,1,1,1,1,Strict,0,2:00 PM,11:00 AM,5.0,$35,4.0,5.0,0,1,0,1,No Charge,0,0,0,0,1,1,0,0,1,1,40.78169716120838,269396,5.0,-73.9774957802617,$3100,1,1,175,Apartment,1,Not Found,0,0,0,1,1,Upper West Side Studio Apartment,https://www.airbnb.com/rooms/269396,1031108,4.5,1,$1150,1,1
200,1,Not Found,0,1,Airbed,1,1,0,0,0,Flexible,0,Not Found,Not Found,Not Found,Not Found,Not Found,Not Found,0,0,0,0,Not Found,0,0,0,0,0,0,0,0,0,0,40.78454112841357,7095189,Not Found,-73.9784257790974,Not Found,0,0,90,Apartment,0,Not Found,0,0,0,0,0,"Spacious One Bedroom Apt, UWS",https://www.airbnb.com/rooms/7095189,29601691,Not Found,0,$580,0,0
201,3,5.0,0,1,Real Bed,1,1,1,1,0,Flexible,1,Not Found,Not Found,4.5,$10,4.0,5.0,0,1,0,1,Not Found,0,1,1,0,1,1,0,0,1,1,40.86476599013972,6032133,4.0,-73.92178662671812,Not Found,1,1,60,Apartment,1,Not Found,1,1,1,1,1,A Room of Your Own (Manhattan),https://www.airbnb.com/rooms/6032133,31308219,4.5,1,Not Found,1,1
202,2,4.5,1,1,Real Bed,1,1,1,1,0,Flexible,1,2:00 PM,1:00 PM,5.0,Not Found,4.5,5.0,0,1,0,1,Not Found,0,0,0,0,1,1,0,0,1,1,40.773158322565585,2623348,5.0,-73.95768323098532,$2600,0,1,90,Apartment,1,Not Found,0,1,0,1,1,Charming Private Bed in a Walkup,https://www.airbnb.com/rooms/2623348,13435721,4.5,1,$600,1,1
203,1,Not Found,1,1,Real Bed,0,1,1,1,0,Flexible,0,Not Found,Not Found,Not Found,Not Found,Not Found,Not Found,0,1,0,1,Not Found,0,0,0,0,1,1,0,0,1,1,40.75554999993877,6528987,Not Found,-73.96613705204736,$1750,0,1,99,Apartment,1,Not Found,1,1,0,1,0,Studio Apt - Midtown East,https://www.airbnb.com/rooms/6528987,34148918,Not Found,1,Not Found,1,1
204,3,Not Found,1,1,Real Bed,1,1,1,1,1,Strict,0,Not Found,Not Found,Not Found,$60,Not Found,Not Found,0,1,0,1,$10 / night after 2 guests,0,0,0,0,1,1,0,0,0,1,40.72582377705144,6948843,Not Found,-73.98747867718042,Not Found,0,1,125,Apartment,1,Not Found,0,1,0,1,0,Sunny East Village Apt. (Manhattan),https://www.airbnb.com/rooms/6948843,23386214,Not Found,1,$765,1,1
205,4,Not Found,1,1.5,Not Found,1,2,1,1,0,Flexible,0,Not Found,Not Found,Not Found,$60,Not Found,Not Found,0,1,1,1,No Charge,1,0,0,0,1,1,1,0,1,1,40.77585885090383,6523389,Not Found,-73.94760009899915,Not Found,0,1,180,Apartment,1,Not Found,1,1,0,1,1,Beautiful Sleep on UES (Loft),https://www.airbnb.com/rooms/6523389,8593176,Not Found,1,$1050,1,1
206,2,5.0,1,1,Real Bed,0,1,1,1,1,Moderate,1,Not Found,Not Found,5.0,Not Found,5.0,5.0,0,1,1,1,No Charge,1,0,1,0,1,1,0,0,1,1,40.785247527719754,6409565,5.0,-73.98130386241894,Not Found,1,1,150,Apartment,1,Not Found,1,1,0,1,1,Cozy UWS Studio,https://www.airbnb.com/rooms/6409565,32062803,5.0,1,Not Found,1,1
207,5,Not Found,1,1,Not Found,2,2,1,0,0,Strict,0,Not Found,Not Found,Not Found,$60,Not Found,Not Found,0,1,0,1,No Charge,1,0,0,0,1,1,0,0,1,1,40.723822863940725,6869563,Not Found,-73.98328092378964,Not Found,0,1,240,Apartment,1,Not Found,1,1,0,1,0,Great 2BR in East Village,https://www.airbnb.com/rooms/6869563,6744448,Not Found,1,Not Found,1,1
208,2,Not Found,1,1,Real Bed,1,1,1,1,0,Moderate,1,Not Found,11:00 AM,Not Found,$75,Not Found,Not Found,0,1,0,1,No Charge,0,0,0,0,1,1,0,0,1,1,40.73817265768652,6653903,Not Found,-74.00445577567079,$3600,0,1,250,Apartment,1,$500,1,1,0,1,0,Charming West Village 1 Bedroom,https://www.airbnb.com/rooms/6653903,5101374,Not Found,1,$1500,1,1
209,1,5.0,1,1,Real Bed,1,1,1,1,1,Flexible,0,Not Found,Not Found,5.0,Not Found,5.0,4.5,0,1,1,1,Not Found,1,0,0,0,1,1,0,0,1,1,40.80891501570625,806205,4.5,-73.9410213310189,$1699,0,1,110,Apartment,1,Not Found,1,1,0,1,1,Private Bedroom and Bathroom,https://www.airbnb.com/rooms/806205,4244052,5.0,1,$693,1,1
210,2,Not Found,1,1,Real Bed,0,1,1,0,0,Flexible,0,Not Found,Not Found,Not Found,$50,Not Found,Not Found,0,1,0,1,No Charge,0,0,0,0,1,1,0,0,1,1,40.83460481454167,7196228,Not Found,-73.94357521669818,Not Found,0,1,80,Apartment,1,$350,1,1,0,1,1,Light cozy studio in Manhattan,https://www.airbnb.com/rooms/7196228,17595220,Not Found,1,Not Found,1,1
211,2,Not Found,1,1,Real Bed,1,1,1,1,0,Strict,1,Not Found,Not Found,Not Found,Not Found,Not Found,Not Found,0,1,0,1,No Charge,0,0,0,0,1,1,0,0,1,1,40.80644859664723,6403485,Not Found,-73.95261448310507,$2500,0,1,130,Apartment,1,Not Found,1,1,0,1,1,Harlem 1 BR (Available for July),https://www.airbnb.com/rooms/6403485,33394459,Not Found,1,$800,1,1
212,1,4.0,0,1,Real Bed,1,1,1,0,1,Strict,0,Not Found,Not Found,4.5,Not Found,4.0,5.0,0,1,0,1,Not Found,0,0,0,0,1,1,0,0,1,1,40.771705242856626,814327,4.5,-73.95041985366171,$1800,0,1,83,Bed & Breakfast,1,Not Found,0,0,1,1,1,room in uper east side manhattan,https://www.airbnb.com/rooms/814327,4279005,4.0,1,$525,1,1
213,1,4.5,1,1,Real Bed,1,1,1,1,1,Strict,0,Not Found,Not Found,4.5,Not Found,4.0,4.5,0,1,0,1,Not Found,0,0,0,0,1,1,1,0,1,1,40.77086014874536,1530356,4.5,-73.9518832707933,$1000,1,1,59,Apartment,1,Not Found,0,0,1,1,1,"couch.in nice living room., manhatt",https://www.airbnb.com/rooms/1530356,4279005,4.5,1,$310,1,1
214,4,4.5,1,1,Not Found,1,2,1,1,0,Strict,1,Not Found,Not Found,4.5,$25,4.5,5.0,0,1,0,1,No Charge,1,0,0,0,1,1,0,0,1,1,40.79998871977391,1115415,5.0,-73.96400659055692,$3129,0,1,149,Apartment,1,$200,0,1,0,1,1,Huge NYC Artsy Apt,https://www.airbnb.com/rooms/1115415,5649165,5.0,1,$887,1,1
215,2,4.5,1,1,Real Bed,1,1,1,1,0,Flexible,0,Not Found,Not Found,4.5,Not Found,3.5,4.5,0,1,1,1,No Charge,0,0,0,0,1,1,0,0,1,1,40.78620240797013,4773441,4.5,-73.94473582922629,Not Found,0,1,65,Apartment,1,Not Found,1,1,0,1,0,Cozy Private Room in Manhattan 3BR,https://www.airbnb.com/rooms/4773441,3776768,4.0,1,$400,1,1
216,4,Not Found,1,1,Not Found,1,2,1,1,0,Moderate,1,12:00 PM (noon),12:00 PM (noon),Not Found,$20,Not Found,Not Found,0,1,1,1,No Charge,1,0,1,0,1,1,0,0,0,1,40.778824394856336,5078167,Not Found,-73.98107578516849,Not Found,0,1,135,Apartment,1,$400,1,1,0,1,1,Rest after NYC fun in HUGE 1BD Room,https://www.airbnb.com/rooms/5078167,26224790,Not Found,1,$800,1,1
217,3,5.0,1,1,Not Found,0,3,1,1,1,Moderate,1,Not Found,Not Found,5.0,$75,4.5,5.0,0,1,1,1,$20 / night after 2 guests,0,0,0,0,1,1,0,0,1,1,40.72399034879687,5800547,5.0,-73.98864092890813,$4400,0,1,175,Apartment,1,$250,1,1,0,1,1,Top Floor East Village Apartment,https://www.airbnb.com/rooms/5800547,9545989,4.5,1,$1150,1,1
218,1,Not Found,1,1,Real Bed,1,1,1,0,0,Flexible,0,Not Found,Not Found,Not Found,Not Found,Not Found,Not Found,0,1,0,1,Not Found,0,0,0,0,1,1,0,0,0,1,40.71754171954934,7144379,Not Found,-73.99025235538525,Not Found,0,1,75,Apartment,1,Not Found,0,0,0,1,0,Sunny bedroom in the heart of LES,https://www.airbnb.com/rooms/7144379,34582356,Not Found,1,Not Found,1,1
219,2,Not Found,1,1,Real Bed,0,1,1,1,0,Flexible,0,Not Found,Not Found,Not Found,Not Found,Not Found,Not Found,0,1,1,1,No Charge,0,0,0,0,1,1,0,0,1,1,40.77231692168714,2104619,Not Found,-73.9599010478444,Not Found,0,1,140,Apartment,1,Not Found,0,0,0,1,1,Prime upper East side studio Apt,https://www.airbnb.com/rooms/2104619,10730351,Not Found,1,$850,1,1
220,2,4.0,0,1,Real Bed,1,1,1,1,0,Flexible,1,Not Found,Not Found,4.5,Not Found,4.5,5.0,0,1,1,1,No Charge,0,1,0,0,1,1,0,0,1,1,40.85211943843255,6644136,3.5,-73.92927582834028,Not Found,0,1,58,Apartment,1,Not Found,0,1,1,1,1,"Renovated, Homey, Chic Apartment M",https://www.airbnb.com/rooms/6644136,34776092,4.5,1,Not Found,1,1
221,4,5.0,0,1,Real Bed,1,1,1,1,0,Moderate,1,3:00 PM,12:00 PM (noon),5.0,$25,5.0,5.0,0,1,0,1,$25 / night after the first guest,1,0,0,0,1,1,0,0,1,1,40.72660795303759,6777939,4.5,-73.97678435014933,$1701,1,1,67,Apartment,1,$200,1,1,0,1,0,Sunny Bedroom in the East Village!,https://www.airbnb.com/rooms/6777939,22148309,4.5,1,$450,1,1
222,4,4.5,1,1,Not Found,1,2,1,1,1,Moderate,0,Not Found,Not Found,5.0,Not Found,4.5,5.0,0,1,0,1,No Charge,1,0,0,0,1,1,0,0,1,1,40.7549030663376,2699454,5.0,-73.96729009561133,$3500,0,1,190,Apartment,1,Not Found,1,0,0,1,1,"Sun-Kissed, Renovated Apt. near UN.",https://www.airbnb.com/rooms/2699454,13813131,4.5,1,$1300,1,1
223,2,4.5,1,1,Real Bed,1,1,1,1,0,Flexible,0,Not Found,Not Found,5.0,Not Found,4.0,5.0,0,1,0,1,No Charge,0,0,0,0,1,1,0,0,1,1,40.77632479255753,3771656,5.0,-73.95457505681182,Not Found,0,1,95,Apartment,1,Not Found,0,1,0,1,1,Amazing Upper East Side Location,https://www.airbnb.com/rooms/3771656,19331457,4.5,1,Not Found,1,1
224,6,Not Found,1,1,Real Bed,1,1,1,0,1,Moderate,1,3:00 PM,12:00 PM (noon),Not Found,$95,Not Found,Not Found,0,1,0,1,$25 / night after 2 guests,1,1,0,0,1,1,0,0,1,1,40.81356319164928,6328394,Not Found,-73.94807121399317,Not Found,0,1,100,Apartment,1,$200,0,1,0,1,1,"Trendy, newly renovated 1 BD Apt.",https://www.airbnb.com/rooms/6328394,8876603,Not Found,1,Not Found,1,1
225,4,Not Found,1,1,Not Found,1,2,1,1,0,Moderate,1,Not Found,12:00 PM (noon),Not Found,Not Found,Not Found,Not Found,0,1,1,1,$20 / night after 2 guests,1,1,1,0,1,1,0,0,1,1,40.80737092273556,7192484,Not Found,-73.95204539524929,Not Found,0,1,125,Apartment,1,Not Found,0,1,0,1,0,Entire Apartment in historic Harlem,https://www.airbnb.com/rooms/7192484,417746,Not Found,1,$800,1,1
226,3,5.0,1,1,Real Bed,1,1,1,1,1,Strict,1,10:00 AM,4:00 PM,5.0,$100,4.5,5.0,0,1,0,1,$50 / night after 2 guests,1,0,0,0,1,1,0,0,1,1,40.781885904293645,169479,5.0,-73.97716185560873,$4500,0,1,200,Apartment,1,$202,1,1,1,1,1,You will enjoy the large terrace!  ,https://www.airbnb.com/rooms/169479,807613,4.5,1,$1200,1,1
227,4,4.5,1,1,Real Bed,1,1,1,0,0,Strict,0,Not Found,Not Found,4.0,$60,4.5,4.5,0,1,0,1,$20 / night after the first guest,0,0,0,0,1,1,1,0,1,1,40.762923463103625,1722622,4.5,-73.99009486500748,$5000,0,1,140,Apartment,1,Not Found,0,0,0,1,0,Midtown West Suite - Best Area,https://www.airbnb.com/rooms/1722622,3001712,4.5,1,Not Found,1,1
228,2,4.5,1,1,Not Found,1,2,1,1,1,Moderate,0,11:00 AM,Not Found,5.0,$40,4.5,5.0,0,1,0,1,$20 / night after the first guest,0,0,0,0,1,1,0,0,1,1,40.77954700465656,131747,5.0,-73.98450442677499,Not Found,0,1,165,Apartment,1,$400,0,0,0,1,1,ELEGANT TOWNHOUSE APT* FAB LOC,https://www.airbnb.com/rooms/131747,647988,4.5,1,Not Found,1,1
229,4,Not Found,1,1,Not Found,1,2,1,1,1,Strict,1,3:00 PM,11:00 AM,Not Found,$100,Not Found,Not Found,0,1,0,1,No Charge,0,0,0,0,1,1,0,1,1,1,40.79838412959373,2468186,Not Found,-73.96388158545442,$4000,0,1,200,Apartment,1,$300,1,1,0,1,1,Luxury Living Near Central Park,https://www.airbnb.com/rooms/2468186,4665764,Not Found,1,Not Found,1,1
230,2,Not Found,1,1,Real Bed,1,1,1,1,0,Flexible,1,Not Found,Not Found,Not Found,Not Found,Not Found,Not Found,0,1,0,1,No Charge,0,1,0,0,1,1,0,0,1,1,40.80092127772995,5559399,Not Found,-73.95960618846408,Not Found,0,1,125,Apartment,1,Not Found,0,1,0,1,1,Modern 1 Bedroom in UWS,https://www.airbnb.com/rooms/5559399,1976313,Not Found,1,Not Found,1,1
231,2,5.0,1,1,Real Bed,0,1,1,1,1,Moderate,0,Not Found,Not Found,5.0,$100,5.0,5.0,0,1,1,1,Not Found,0,0,0,0,1,1,0,0,1,1,40.782712826699104,16949,4.0,-73.9467736386615,$3000,0,1,130,Apartment,1,$300,0,0,0,1,1,UES Studio on 2nd Ave and 94th St ,https://www.airbnb.com/rooms/16949,65738,4.5,1,$900,1,1
232,2,5.0,1,1,Real Bed,1,1,1,0,0,Strict,1,3:00 PM,11:00 AM,4.5,Not Found,5.0,4.5,0,1,0,1,No Charge,0,0,0,0,1,1,0,0,0,1,40.81333410873088,6361313,4.5,-73.9558444150528,Not Found,0,1,72,Apartment,1,Not Found,0,1,0,1,0,Cozy Room in Design Apartment,https://www.airbnb.com/rooms/6361313,33120553,4.5,1,Not Found,1,1
233,3,Not Found,1,2,Not Found,2,2,1,0,0,Flexible,0,Not Found,Not Found,Not Found,Not Found,Not Found,Not Found,0,1,0,1,No Charge,0,0,0,0,1,1,0,0,1,1,40.789099777766495,6606910,Not Found,-73.97082161477506,Not Found,0,1,300,Apartment,1,Not Found,0,0,0,1,1,Two Bedroom Two Bathroom,https://www.airbnb.com/rooms/6606910,20469855,Not Found,1,Not Found,1,1
234,1,Not Found,0,1,Real Bed,1,1,1,0,0,Moderate,0,Not Found,Not Found,Not Found,Not Found,Not Found,Not Found,0,1,1,1,Not Found,0,0,0,0,1,1,0,0,0,1,40.811682572386154,7150696,Not Found,-73.95813215422676,$1000,1,1,40,Apartment,1,Not Found,0,1,0,1,0,One room in a three bedroom!,https://www.airbnb.com/rooms/7150696,13872342,Not Found,1,$250,1,1
235,1,4.5,1,1,Couch,1,1,1,1,0,Moderate,0,10:00 AM,10:00 AM,5.0,$20,5.0,5.0,0,1,1,1,Not Found,0,0,0,0,1,1,0,0,1,1,40.73024789151808,102452,4.5,-73.97924718560498,Not Found,0,1,55,Apartment,1,$100,1,0,0,1,0,AMAZING VIEW OF East Village NYC!,https://www.airbnb.com/rooms/102452,535621,4.5,1,Not Found,1,1
236,1,5.0,1,1,Real Bed,1,1,1,1,1,Flexible,0,Not Found,11:00 AM,5.0,Not Found,4.5,5.0,0,1,0,1,Not Found,0,0,0,0,1,1,0,0,0,1,40.74193666848122,1377478,5.0,-73.99905123489125,$2350,0,1,145,Apartment,1,Not Found,0,0,0,1,0,Charming Room in Chelsea Apartment,https://www.airbnb.com/rooms/1377478,1023119,4.5,1,$800,1,1
237,2,4.5,1,1,Real Bed,1,1,1,1,0,Strict,0,6:00 PM,5:00 PM,4.5,$15,4.5,4.5,0,1,0,1,$15 / night after the first guest,0,0,0,0,1,1,0,0,1,1,40.75735534994415,2141337,4.5,-73.99353586300232,Not Found,0,1,95,Apartment,1,Not Found,0,0,0,1,0,Live right in the center of NYC! :),https://www.airbnb.com/rooms/2141337,10916318,4.0,1,$900,1,1
238,2,Not Found,0,1.5,Real Bed,1,1,1,1,0,Flexible,0,Not Found,Not Found,Not Found,$25,Not Found,Not Found,0,1,0,1,$10 / night after the first guest,0,0,0,0,1,1,0,0,0,1,40.731331112526924,6741662,Not Found,-73.98473597076548,Not Found,0,1,99,Apartment,1,$99,1,1,0,1,0,"Get Cozy in East Village, Manhattan",https://www.airbnb.com/rooms/6741662,35300969,Not Found,1,Not Found,1,1
239,1,Not Found,1,1,Real Bed,1,1,1,1,0,Moderate,0,Not Found,Not Found,Not Found,Not Found,Not Found,Not Found,0,1,1,1,Not Found,0,0,0,0,1,1,0,0,0,1,40.853413758093076,5298458,Not Found,-73.93180760599307,$845,0,1,47,Apartment,1,$500,0,1,0,1,0,"Manhattan, Time Square à 30'",https://www.airbnb.com/rooms/5298458,2730883,Not Found,1,Not Found,1,1
240,2,5.0,1,1,Real Bed,0,1,1,1,1,Moderate,0,5:00 PM,Not Found,5.0,$35,5.0,5.0,0,1,0,1,Not Found,0,0,0,0,1,1,0,0,0,1,40.78668633392767,1415757,4.5,-73.96783666405176,Not Found,0,1,160,Apartment,1,$500,1,0,0,1,1,Cozy Studio in UWS,https://www.airbnb.com/rooms/1415757,7628501,4.5,1,Not Found,1,1
241,2,Not Found,1,1,Real Bed,1,1,1,1,1,Strict,0,Not Found,Not Found,Not Found,$40,Not Found,Not Found,0,1,1,1,No Charge,0,0,1,0,1,1,0,0,1,1,40.76193127976715,7093920,Not Found,-73.94933389589154,Not Found,0,1,75,Apartment,1,$200,1,1,0,1,1,Roosevelt Island Charm,https://www.airbnb.com/rooms/7093920,37181980,Not Found,1,$550,1,1
242,2,4.5,1,1,Real Bed,1,1,1,0,1,Flexible,0,Not Found,Not Found,4.5,$30,4.5,4.5,1,1,1,1,Not Found,1,1,1,0,1,1,0,0,1,1,40.718559025828085,6201222,4.5,-74.01121305303508,$2800,0,1,120,Apartment,1,Not Found,0,1,1,1,1,Stunning Tribeca room with a view.,https://www.airbnb.com/rooms/6201222,5576539,4.5,1,$800,1,1
243,2,5.0,1,1,Real Bed,1,1,1,1,0,Moderate,0,2:00 PM,12:00 PM (noon),5.0,$30,5.0,5.0,0,1,0,1,No Charge,0,0,0,0,1,1,0,0,1,1,40.799324653824854,1906022,5.0,-73.9592253037831,Not Found,0,1,155,Apartment,1,$200,1,0,0,1,0,Beautiful Studio facing Central Park,https://www.airbnb.com/rooms/1906022,8063139,5.0,1,Not Found,1,1
244,2,4.5,1,1,Real Bed,1,1,1,0,0,Flexible,0,2:00 PM,11:00 AM,5.0,$10,4.5,5.0,0,1,0,1,No Charge,0,1,1,0,1,1,0,0,1,1,40.79346656910349,3967945,4.5,-73.9502873676708,Not Found,0,1,90,Apartment,1,Not Found,1,1,0,1,1,Great Apt steps from Central Park,https://www.airbnb.com/rooms/3967945,18481481,4.5,1,Not Found,1,1
245,4,Not Found,1,1,Not Found,1,2,1,1,1,Flexible,0,Not Found,Not Found,Not Found,$90,Not Found,Not Found,0,1,0,1,$10 / night after 2 guests,1,1,1,0,1,1,0,0,1,1,40.76345869568903,6950065,Not Found,-73.99045452567789,Not Found,0,1,199,Apartment,1,Not Found,1,1,0,1,1,NEW APARTMENT NEAR TIMES SQUARE!,https://www.airbnb.com/rooms/6950065,21918759,Not Found,1,Not Found,1,1
246,2,Not Found,1,1,Real Bed,1,1,1,1,0,Moderate,1,Not Found,12:00 PM (noon),Not Found,$60,Not Found,Not Found,0,1,0,1,No Charge,0,0,0,0,1,1,0,0,1,1,40.72882333315003,4782515,Not Found,-73.99967640112583,Not Found,0,1,148,Apartment,1,$150,0,1,0,1,0,Charming 1 bed in Greenwich Village,https://www.airbnb.com/rooms/4782515,1915794,Not Found,1,Not Found,1,1
247,2,4.5,1,1,Real Bed,1,1,1,1,1,Strict,1,2:00 PM,12:00 PM (noon),4.5,Not Found,4.5,4.5,0,1,1,1,No Charge,1,0,1,0,1,1,0,0,1,1,40.80589756027066,5789606,4.0,-73.95872463808689,Not Found,0,1,70,Apartment,1,Not Found,1,1,0,1,1,Cozy BedRoom,https://www.airbnb.com/rooms/5789606,30037999,4.5,1,$450,1,1
248,2,4.5,0,1,Real Bed,1,1,1,1,0,Flexible,0,Not Found,Not Found,5.0,$50,4.0,5.0,0,1,0,1,No Charge,0,0,0,0,1,1,0,0,1,1,40.72192340115509,5781142,4.5,-73.98835631400918,Not Found,0,1,140,Apartment,1,Not Found,0,0,0,1,0,"Pretty, Light Downtown Apartment",https://www.airbnb.com/rooms/5781142,6845704,4.5,1,Not Found,1,1
249,2,4.5,1,1,Real Bed,0,1,1,1,0,Moderate,1,Not Found,Not Found,5.0,$50,5.0,5.0,0,1,0,1,No Charge,0,1,0,0,1,1,0,0,1,1,40.78360685543197,6456733,5.0,-73.97745646230598,Not Found,0,1,145,Apartment,1,Not Found,1,1,0,1,1,Large sunny UWS studio w Queen bed,https://www.airbnb.com/rooms/6456733,4893786,5.0,1,$1050,1,1
250,2,Not Found,1,1,Real Bed,0,1,1,1,0,Strict,1,Not Found,Not Found,Not Found,Not Found,Not Found,Not Found,0,1,0,1,No Charge,0,0,0,0,1,1,0,0,0,1,40.74223607885756,7067339,Not Found,-73.99785194167066,Not Found,0,1,125,Apartment,1,Not Found,1,1,0,1,0,Heart of Chelsea,https://www.airbnb.com/rooms/7067339,4138235,Not Found,1,Not Found,1,1
251,1,Not Found,0,1,Couch,1,1,0,0,0,Flexible,0,Not Found,Not Found,Not Found,Not Found,Not Found,Not Found,0,0,0,0,Not Found,0,0,0,0,0,0,0,0,0,0,40.784896887203786,7132155,Not Found,-73.97792584973614,Not Found,0,0,60,Apartment,0,Not Found,0,0,0,0,0,Couch in Apartment in UWS,https://www.airbnb.com/rooms/7132155,6988990,Not Found,0,Not Found,0,0
252,1,Not Found,1,1,Real Bed,1,1,1,1,1,Flexible,0,Not Found,Not Found,Not Found,Not Found,Not Found,Not Found,0,1,1,1,Not Found,0,1,1,0,1,1,1,0,1,1,40.72988008847143,6886424,Not Found,-73.98104376959999,Not Found,0,1,90,Apartment,1,Not Found,1,1,0,1,1,"Cozy, clean room in East Village",https://www.airbnb.com/rooms/6886424,36085233,Not Found,1,Not Found,1,1
253,2,4.5,1,1,Real Bed,0,1,1,1,0,Strict,0,3:00 PM,12:00 PM (noon),4.5,$60,4.0,5.0,0,1,0,1,No Charge,0,0,0,0,1,1,0,0,1,1,40.77471546557167,3528438,4.5,-73.95179421663165,$2450,0,1,130,Apartment,1,$200,1,0,0,1,1,Fantastic Studio for your NYC stay!,https://www.airbnb.com/rooms/3528438,2140489,4.5,1,$850,1,1
254,6,Not Found,1,1,Not Found,2,5,1,0,0,Flexible,0,Not Found,Not Found,Not Found,$65,Not Found,Not Found,0,1,0,1,Not Found,1,1,1,0,1,1,0,0,1,1,40.86716873685326,7198592,Not Found,-73.91943144001719,Not Found,0,1,160,Apartment,1,Not Found,0,1,0,1,1,"Lovely 2 Bdrm. Trains, Parks, Food!",https://www.airbnb.com/rooms/7198592,140817,Not Found,1,Not Found,1,1
255,2,5.0,1,1,Real Bed,1,1,1,1,1,Moderate,0,Not Found,2:00 PM,5.0,$60,4.5,5.0,0,1,0,1,No Charge,0,0,0,0,1,1,0,0,1,1,40.74616204466872,592991,5.0,-73.99674872598366,Not Found,0,1,178,Apartment,1,Not Found,0,0,0,1,1,Studio West Village/Meatpacking,https://www.airbnb.com/rooms/592991,2927292,4.5,1,Not Found,1,1
256,2,Not Found,0,1,Real Bed,1,1,1,1,0,Strict,0,Not Found,Not Found,Not Found,$20,Not Found,Not Found,0,1,1,1,No Charge,0,0,0,0,1,1,0,0,1,1,40.81062547975417,6144953,Not Found,-73.96146751539878,$1499,0,1,75,Apartment,1,Not Found,1,1,0,1,0,Quiet room in 1000 sq ft apartment,https://www.airbnb.com/rooms/6144953,27775973,Not Found,1,Not Found,1,1
257,2,5.0,1,1,Real Bed,1,1,1,1,1,Flexible,1,6:00 PM,2:00 PM,5.0,Not Found,5.0,5.0,0,1,1,1,Not Found,0,0,1,0,1,1,0,0,1,1,40.80475896888975,565558,4.5,-73.95634887234414,Not Found,0,1,75,Apartment,1,Not Found,1,1,0,1,1,"Cute space, near Columbia, Wifi",https://www.airbnb.com/rooms/565558,2781072,5.0,1,Not Found,1,1
258,2,Not Found,0,1,Real Bed,1,1,1,1,0,Moderate,1,Not Found,Not Found,Not Found,$20,Not Found,Not Found,0,1,0,1,No Charge,1,0,1,0,1,1,0,0,1,1,40.725340540390896,5854872,Not Found,-73.97877464807286,Not Found,0,1,140,Apartment,1,Not Found,0,1,0,1,0,East Village 1-bedroom paradise,https://www.airbnb.com/rooms/5854872,310087,Not Found,1,$950,1,1
259,1,Not Found,0,1,Real Bed,1,1,1,0,0,Flexible,0,Not Found,Not Found,Not Found,Not Found,Not Found,Not Found,1,1,1,1,Not Found,0,0,0,0,1,1,0,0,1,1,40.80267407109149,6921152,Not Found,-73.96453734369122,$1200,0,1,50,Apartment,1,Not Found,0,0,0,1,0,[Upper West 110th ST Furnitured],https://www.airbnb.com/rooms/6921152,36274102,Not Found,1,$400,1,1
260,2,4.5,1,1,Real Bed,1,1,1,1,0,Strict,1,Not Found,Not Found,4.5,$27,4.5,4.5,0,1,0,1,$20 / night after the first guest,0,0,0,0,1,1,0,0,1,1,40.747039232416526,557018,4.5,-74.00118218032692,Not Found,0,1,85,Apartment,1,$100,0,1,0,1,1,GREAT Private Room in Chelsea!,https://www.airbnb.com/rooms/557018,2687671,4.5,1,Not Found,1,1
261,2,4.5,1,1,Real Bed,1,1,1,1,0,Moderate,0,1:00 PM,11:00 AM,5.0,$40,4.0,5.0,0,1,0,1,No Charge,0,0,0,0,1,1,0,0,1,1,40.79424576853081,286529,4.5,-73.96282044486524,Not Found,0,1,99,Apartment,1,$250,0,0,0,1,0,Bedroom overlooking Central Park!,https://www.airbnb.com/rooms/286529,1490833,4.5,1,Not Found,1,1
262,1,4.5,1,1,Real Bed,1,1,1,0,0,Moderate,1,2:00 PM,12:00 PM (noon),4.5,Not Found,4.5,4.5,0,1,0,1,Not Found,0,1,1,0,1,1,0,0,1,1,40.81938566904297,4974709,4.0,-73.95438449396572,Not Found,0,1,45,Apartment,1,Not Found,0,1,0,1,1,The Manhattanville Guestroom,https://www.airbnb.com/rooms/4974709,16954768,4.5,1,Not Found,1,1
263,2,5.0,0,2,Real Bed,1,1,1,1,0,Moderate,1,Not Found,Not Found,4.5,$100,4.0,5.0,0,1,0,1,$10 / night after the first guest,0,1,1,0,1,1,0,0,1,1,40.802577826751325,4267375,4.5,-73.95816719083436,Not Found,0,1,70,Apartment,1,Not Found,1,1,0,1,0,Room in park-facing apartment,https://www.airbnb.com/rooms/4267375,6671884,5.0,1,Not Found,1,1
264,2,Not Found,1,1,Real Bed,1,1,1,0,0,Flexible,0,Not Found,Not Found,Not Found,Not Found,Not Found,Not Found,0,1,1,1,No Charge,0,0,0,0,1,1,0,0,0,1,40.81374242613751,7145712,Not Found,-73.93474754784137,Not Found,0,1,50,Apartment,1,Not Found,0,1,0,1,0,ENJOY NEW YORK CITY!!,https://www.airbnb.com/rooms/7145712,37421179,Not Found,1,Not Found,1,1
265,4,Not Found,0,1,Real Bed,0,1,1,1,0,Moderate,0,Not Found,Not Found,Not Found,$30,Not Found,Not Found,1,1,1,1,$20 / night after 2 guests,1,0,0,0,1,1,0,0,1,1,40.755223467566594,6179688,Not Found,-73.99905907827758,Not Found,0,1,99,Apartment,1,Not Found,1,0,0,1,0,"Sunny, Minimal Studio by High Line!",https://www.airbnb.com/rooms/6179688,4499819,Not Found,1,Not Found,1,1
266,2,4.5,0,1,Real Bed,1,1,1,1,1,Strict,0,Not Found,12:00 PM (noon),5.0,Not Found,4.0,5.0,0,1,1,1,$10 / night after the first guest,0,0,0,0,1,1,0,0,1,1,40.823538067108316,5704948,5.0,-73.94384849267627,Not Found,0,1,70,Apartment,1,Not Found,1,1,0,1,1,Upper Manhattan King Room,https://www.airbnb.com/rooms/5704948,4837798,4.5,1,Not Found,1,1
267,1,4.5,1,2,Real Bed,1,1,1,1,0,Strict,0,Not Found,Not Found,5.0,$5,4.5,5.0,0,1,1,1,Not Found,0,0,0,0,1,1,0,0,0,1,40.84867987207523,3865141,4.5,-73.93399415811993,$1400,0,1,60,Apartment,1,Not Found,1,0,0,1,1,On Broadway Close to Express Train!,https://www.airbnb.com/rooms/3865141,8616890,4.5,1,$400,1,1
268,6,Not Found,1,1,Not Found,2,2,1,0,0,Strict,0,Not Found,Not Found,Not Found,$100,Not Found,Not Found,1,1,1,1,No Charge,1,1,1,0,1,1,0,0,1,1,40.80166180861362,5028518,Not Found,-73.96094540607426,Not Found,0,1,200,Apartment,1,$500,0,1,0,1,1,Large 2BD. UWS Near Columbia U/Park,https://www.airbnb.com/rooms/5028518,5993211,Not Found,1,$1300,1,1
269,2,4.5,1,1,Real Bed,1,1,1,1,0,Flexible,1,Not Found,Not Found,5.0,Not Found,4.5,5.0,0,1,0,1,No Charge,0,0,0,0,1,1,0,0,1,1,40.79918691648152,3802306,4.5,-73.95059694711989,Not Found,0,1,95,Apartment,1,Not Found,0,1,0,1,0,Cozy & historic Central Park apt.,https://www.airbnb.com/rooms/3802306,19533079,4.5,1,$550,1,1
270,5,Not Found,1,1,Not Found,1,2,1,0,1,Strict,0,Not Found,Not Found,Not Found,Not Found,Not Found,Not Found,0,1,1,1,$30 / night after 2 guests,0,0,0,0,1,1,0,0,1,1,40.7867083795822,5006165,Not Found,-73.97269695804627,Not Found,0,1,160,Apartment,1,$400,1,0,0,1,1,Cozy and spacious apartment UWS,https://www.airbnb.com/rooms/5006165,9803738,Not Found,1,Not Found,1,1
271,4,Not Found,1,1,Not Found,0,2,1,1,1,Strict,0,3:00 PM,11:00 AM,Not Found,$55,Not Found,Not Found,0,1,0,1,No Charge,1,1,0,0,1,1,0,0,1,1,40.7662003419716,7173478,Not Found,-73.98432242026794,Not Found,0,1,120,Apartment,1,$100,1,1,0,1,1,BEAUTIFUL STUDIO IN TIMES SQ 4PPL,https://www.airbnb.com/rooms/7173478,9074158,Not Found,1,Not Found,1,1
272,5,4.5,1,1,Not Found,1,2,1,1,0,Strict,1,4:00 PM,1:00 PM,5.0,$49,5.0,5.0,0,1,0,1,$20 / night after 2 guests,0,0,0,0,1,1,0,0,1,1,40.745711871153816,6044648,5.0,-73.9992387308774,$3999,0,1,149,Apartment,1,$500,1,1,0,1,0,Cozy 1BR in Prime Chelsea,https://www.airbnb.com/rooms/6044648,1192756,5.0,1,$1199,1,1
273,3,4.5,1,1,Real Bed,1,1,1,1,0,Strict,1,Not Found,Not Found,4.5,$20,3.0,4.5,0,1,0,1,$20 / night after 2 guests,1,0,0,0,1,1,1,0,1,1,40.77901374616557,1805797,5.0,-73.97598195229584,$2250,1,1,90,Apartment,1,Not Found,1,1,1,1,1,Large 1 Bedroom/1 Bath with Patio!,https://www.airbnb.com/rooms/1805797,9464411,4.5,1,$600,1,1
274,1,Not Found,0,1,Real Bed,1,1,1,0,0,Flexible,1,Not Found,Not Found,Not Found,Not Found,Not Found,Not Found,0,1,0,1,Not Found,0,0,0,0,1,1,0,0,1,1,40.77575653320784,7205304,Not Found,-73.94962307522678,$1400,0,1,47,Apartment,1,Not Found,0,1,0,1,1,1BR in a 2 BR Apartment,https://www.airbnb.com/rooms/7205304,37726752,Not Found,1,Not Found,1,1
275,3,4.5,1,1,Not Found,1,3,1,1,1,Strict,1,4:00 PM,12:00 PM (noon),4.5,$85,4.5,4.5,0,1,0,1,$25 / night after 2 guests,1,1,1,0,1,1,0,0,1,1,40.81617573949678,29455,4.0,-73.9489419503933,$2499,0,1,119,Apartment,1,$300,1,1,0,1,1,ACCOMMODATIONS GALORE 4 GUESTS.,https://www.airbnb.com/rooms/29455,126607,4.5,1,$708,1,1
276,2,4.5,0,1,Real Bed,1,1,1,1,0,Strict,0,3:00 PM,12:00 PM (noon),4.5,$20,4.0,4.5,0,1,0,1,No Charge,0,0,0,0,1,1,0,0,1,1,40.7703600922959,1111689,4.5,-73.94923630649278,Not Found,0,1,115,Apartment,1,Not Found,1,1,0,1,1,Upper East Side / Yorkville Studio,https://www.airbnb.com/rooms/1111689,6101617,4.0,1,$650,1,1
277,2,Not Found,1,1,Real Bed,0,1,1,0,0,Flexible,1,Not Found,Not Found,Not Found,$80,Not Found,Not Found,1,1,1,1,No Charge,1,0,1,0,1,1,0,0,1,1,40.705102121412985,6967432,Not Found,-74.01628048790502,$2919,1,1,139,Apartment,1,$500,0,1,1,1,0,Studio apartment in Battery Park,https://www.airbnb.com/rooms/6967432,6523373,Not Found,1,$827,1,1
278,2,5.0,1,1,Real Bed,1,1,1,1,0,Strict,0,7:00 PM,11:00 AM,5.0,$20,5.0,5.0,0,1,1,1,$20 / night after the first guest,0,0,0,0,1,1,0,0,0,1,40.832517906456054,2778250,4.5,-73.94915828540982,$1500,0,1,70,Apartment,1,$200,0,1,0,1,0,Queen size bedroom with river view!,https://www.airbnb.com/rooms/2778250,4417252,5.0,1,$420,1,1
279,1,Not Found,1,1,Real Bed,1,1,1,1,0,Flexible,0,Not Found,Not Found,Not Found,Not Found,Not Found,Not Found,0,1,0,1,Not Found,0,0,0,0,1,1,0,0,1,1,40.76341082725183,7004103,Not Found,-73.97937584298012,$1400,0,1,100,Apartment,1,Not Found,0,0,0,1,0,Large Exposed Brick 1BR in Midtown,https://www.airbnb.com/rooms/7004103,36692063,Not Found,1,$600,1,1
280,4,Not Found,1,1,Not Found,1,2,1,0,0,Moderate,0,Not Found,Not Found,Not Found,$50,Not Found,Not Found,0,1,0,1,No Charge,1,0,0,0,1,1,0,0,1,1,40.82673492213223,6811778,Not Found,-73.94234716534223,Not Found,0,1,150,Apartment,1,Not Found,0,0,0,1,0,"Large, Private NYC Apartment",https://www.airbnb.com/rooms/6811778,35657710,Not Found,1,$750,1,1
281,3,Not Found,1,1,Not Found,2,2,1,0,0,Moderate,1,12:00 PM (noon),Not Found,Not Found,Not Found,Not Found,Not Found,0,1,0,1,$10 / night after 2 guests,1,0,0,0,1,1,0,0,1,1,40.7248102074068,7134658,Not Found,-73.97781130364365,Not Found,0,1,150,Apartment,1,$500,0,0,1,1,1,East Village Superclean 2 Bd apt,https://www.airbnb.com/rooms/7134658,3510405,Not Found,1,Not Found,1,1
282,2,Not Found,0,1,Real Bed,1,1,1,1,0,Strict,1,12:00 PM (noon),12:00 PM (noon),Not Found,$15,Not Found,Not Found,0,1,1,1,$15 / night after the first guest,1,0,0,0,1,1,1,0,1,1,40.832212538486196,6742901,Not Found,-73.94056177255696,$1500,0,1,65,Apartment,1,$95,0,1,0,1,0,Private bedroom in Manhattan,https://www.airbnb.com/rooms/6742901,3494886,Not Found,1,Not Found,1,1
283,2,5.0,1,1,Real Bed,1,1,1,1,1,Strict,1,3:00 PM,12:00 PM (noon),5.0,Not Found,5.0,5.0,0,1,1,1,$22 / night after the first guest,0,1,1,0,1,1,0,0,1,1,40.83213178698768,5957914,4.5,-73.9391302176408,Not Found,0,1,69,Apartment,1,Not Found,1,1,0,1,1,Bright Sunny Room With City Views,https://www.airbnb.com/rooms/5957914,30927831,5.0,1,Not Found,1,1
284,2,Not Found,1,1,Real Bed,0,1,1,1,0,Strict,0,Not Found,Not Found,Not Found,$33,Not Found,Not Found,0,1,0,1,No Charge,0,0,0,0,1,1,0,1,1,1,40.726468665993856,6260706,Not Found,-74.00344203934213,Not Found,0,1,163,Apartment,1,Not Found,1,1,0,1,0,Beautiful Bright Soho Studio,https://www.airbnb.com/rooms/6260706,14305428,Not Found,1,Not Found,1,1
285,4,Not Found,1,1,Real Bed,1,1,1,0,0,Strict,0,Not Found,Not Found,Not Found,Not Found,Not Found,Not Found,0,1,0,1,$15 / night after the first guest,0,0,0,0,1,1,0,0,0,1,40.79920918992111,7208278,Not Found,-73.95594586977907,Not Found,0,1,80,Apartment,1,$200,1,1,0,1,1,Big Room in Front of Central Park,https://www.airbnb.com/rooms/7208278,59172,Not Found,1,Not Found,1,1
286,3,3.5,1,1,Not Found,1,2,1,1,1,Strict,0,2:00 PM,11:00 AM,4.0,$75,4.0,4.0,0,1,0,1,$20 / night after 2 guests,1,0,0,0,1,1,0,0,0,1,40.783120121431374,616208,4.5,-73.97464030601631,Not Found,0,1,135,Apartment,1,Not Found,0,0,0,1,1,Gorgeous Sunny Studio,https://www.airbnb.com/rooms/616208,26640,4.0,1,Not Found,1,1
287,4,Not Found,0,1,Not Found,2,2,1,1,0,Flexible,0,Not Found,Not Found,Not Found,Not Found,Not Found,Not Found,0,1,0,1,No Charge,0,0,0,0,1,1,0,0,1,1,40.78596964983787,5858087,Not Found,-73.97727134063199,Not Found,0,1,200,Apartment,1,Not Found,0,1,0,1,0,Upper West Side 2BR,https://www.airbnb.com/rooms/5858087,30415804,Not Found,1,Not Found,1,1
288,2,5.0,0,1,Real Bed,1,1,1,0,0,Flexible,0,Not Found,Not Found,5.0,Not Found,4.5,4.5,0,1,0,1,No Charge,0,0,0,0,1,1,0,0,1,1,40.834112167857285,6397707,4.5,-73.94665292013747,Not Found,0,1,60,Apartment,1,Not Found,0,0,0,1,0,1 Large BD in 2 BD Manhattan apt,https://www.airbnb.com/rooms/6397707,24835158,4.5,1,Not Found,1,1
289,2,4.5,1,1,Real Bed,1,1,1,1,0,Strict,1,4:00 PM,11:00 AM,5.0,$50,4.5,5.0,1,1,1,1,$25 / night after the first guest,0,0,0,0,1,1,0,0,1,1,40.80950415711657,3979628,4.5,-73.95394625560391,$2500,0,1,93,Apartment,1,$100,1,1,0,1,0,BR/Private Bath 10Mins to TIME SQ,https://www.airbnb.com/rooms/3979628,2766755,4.5,1,Not Found,1,1
290,4,4.0,1,1,Not Found,1,2,1,0,1,Moderate,1,Not Found,Not Found,4.0,$80,4.0,4.5,1,1,1,1,No Charge,0,0,1,0,1,1,0,0,0,1,40.76417753726806,606386,5.0,-73.97670313653096,Not Found,1,1,160,Apartment,1,$240,0,0,0,1,1,STUDIO AT MANHATTAN'S HEART C. PARK,https://www.airbnb.com/rooms/606386,3003563,3.5,1,Not Found,1,1
291,4,4.5,1,1,Not Found,1,2,1,0,0,Moderate,0,3:00 PM,11:00 AM,4.5,$40,5.0,4.5,0,1,1,1,$10 / night after 2 guests,1,0,0,1,1,1,0,0,1,1,40.81163760085728,1498997,4.0,-73.93610618073079,Not Found,0,1,105,Apartment,1,Not Found,0,0,0,1,1,HUGE Harlem Apartment!,https://www.airbnb.com/rooms/1498997,8010331,5.0,1,Not Found,1,1
292,2,5.0,0,1,Real Bed,1,1,1,0,0,Strict,1,2:00 PM,12:00 PM (noon),5.0,Not Found,5.0,5.0,0,1,0,1,No Charge,0,1,0,0,1,1,0,0,0,1,40.79607519582101,4268286,4.0,-73.93818770592556,Not Found,0,1,80,House,1,Not Found,0,1,0,1,0,Cozy brownstone bed & bath; pvt.ent,https://www.airbnb.com/rooms/4268286,22158091,4.5,1,Not Found,1,1
293,2,Not Found,1,1,Real Bed,1,1,1,0,1,Flexible,0,Not Found,Not Found,Not Found,$20,Not Found,Not Found,0,1,0,1,No Charge,0,1,0,0,1,1,0,0,1,1,40.76387406971058,6849879,Not Found,-73.9582915571203,$2400,0,1,78,Apartment,1,Not Found,1,1,0,1,1,"Middle Bedroom,Great Neighborhood",https://www.airbnb.com/rooms/6849879,3541780,Not Found,1,$500,1,1
294,4,5.0,0,1,Not Found,1,2,1,1,0,Moderate,1,Not Found,12:00 PM (noon),5.0,Not Found,4.5,5.0,0,1,1,1,$24 / night after the first guest,1,0,0,0,1,1,0,0,1,1,40.79507685831342,3715638,4.5,-73.94894602366848,$1568,0,1,68,Apartment,1,Not Found,1,1,0,1,1,Sunny Room at Central Park!,https://www.airbnb.com/rooms/3715638,9784206,4.5,1,$520,1,1
295,5,Not Found,1,1,Not Found,2,3,1,0,0,Strict,0,3:00 PM,12:00 PM (noon),Not Found,$50,Not Found,Not Found,0,1,0,1,$10 / night after 2 guests,0,0,0,0,1,1,0,0,1,1,40.79489944297064,6348483,Not Found,-73.93411906024947,$4600,0,1,230,Apartment,1,Not Found,0,1,0,1,0,Huge loft two bedroom Central Park!,https://www.airbnb.com/rooms/6348483,22008459,Not Found,1,$1500,1,1
296,1,4.5,1,1,Real Bed,1,1,1,0,0,Strict,1,Not Found,Not Found,5.0,Not Found,4.0,5.0,0,1,1,1,Not Found,0,0,0,0,1,1,0,0,1,1,40.75860457033141,6076131,5.0,-73.97218198415851,Not Found,0,1,100,Apartment,1,Not Found,1,1,0,1,1,Beautiful Room in Midtown East,https://www.airbnb.com/rooms/6076131,23457219,4.5,1,$560,1,1
297,2,4.5,1,1,Real Bed,1,1,1,1,0,Moderate,1,3:00 PM,12:00 PM (noon),5.0,$20,4.5,5.0,0,1,1,1,$20 / night after the first guest,1,0,1,0,1,1,0,0,1,1,40.80093843803968,3721245,5.0,-73.96002982560944,Not Found,0,1,89,Apartment,1,$400,1,1,0,1,0,"Private room,across from Central Pk",https://www.airbnb.com/rooms/3721245,5220676,4.5,1,$553,1,1
